~Version ---------------------------------------------------
VERS.   2.0 : CWLS log ASCII Standard -VERSION 2.0
WRAP.    NO : One line per depth step
DLM . SPACE : Column Data Section Delimiter
~Well ------------------------------------------------------
STRT.m                      1.45 : START DEPTH
STOP.m                     166.6 : STOP DEPTH
STEP.m      0.050000000000000044 : STEP
NULL.                   -9999.25 : NULL VALUE
COMP.       Geoscience Australia : COMPANY
WELL.                    13BP01D : WELL
FLD .                            : FIELD
LOC .                            : LOCATION
PROV.                            : PROVINCE
CNTY.                            : COUNTY
STAT.                            : STATE
CTRY.                        AUS : COUNTRY
SRVC.                            : SERVICE COMPANY
DATE. 2019-05-28 16:13:54.403781 : DATE
UWI .                     627061 : UNIQUE WELL ID
API .                            : API NUMBER
X   .                   473886.6 : eastings (m)
Y   .                  8333260.7 : northings (m)
GDAT.                      GDA94 : geodetic datum
HZCS.                MGA zone 52 : Horizontal Co-ordinate System
PDAT.                         GL : Local Permanent Datum
LMF .    top of casing protector : Logging Measured From
APD .m                      0.73 : Elevation of Depth Reference (LMF) Above Permanent Datum
EPD .mAHD                  84.04 : Elevation of Permanent Datum (PDAT) above Mean Sea Level
~Curve Information -----------------------------------------
DEPT                          .m     : 
GR                            .API   : 
INDUCTION_BOREHOLE_COMPENSATED.mS/m  : 
~Params ----------------------------------------------------
~Other -----------------------------------------------------
Filtered  induction gamma logs for the East Kimberley EFtF project. Depth measurements are relative to a 
~ASCII -----------------------------------------------------
# ...
  107.65000   28.56507   15.27967
  107.70000   28.84580   15.26597
  107.75000   28.99637   15.25135
  107.80000   29.31233   15.24232
  107.85000   29.01514   15.23707
  107.90000   29.06252   15.23210
  107.95000   29.30621   15.23192
  108.00000   29.54728   15.24071
  108.05000   29.78376   15.25895
  108.10000   29.75781   15.27504
  108.15000   29.84581   15.29394
  108.20000   30.03787   15.31383
  108.25000   30.23825   15.33832
  108.30000   30.27125   15.35379
  108.35000   30.40116   15.34485
  108.40000   30.55532   15.32753
  108.45000   30.93580   15.30364
  108.50000   30.96571   15.28113
  108.55000   30.42310   15.25437
  108.60000   29.93686   15.23975
  108.65000   29.97518   15.24265
  108.70000   30.16427   15.25065
  108.75000   29.94065   15.25606
  108.80000   29.85629   15.25604
  108.85000   29.52774   15.25221
  108.90000   29.30588   15.24269
  108.95000   29.26545   15.23242
  109.00000   29.48783   15.22184
  109.05000   29.76554   15.21499
  109.10000   29.92433   15.21192
  109.15000   30.00332   15.20738
  109.20000   30.12232   15.20232
  109.25000   30.11895   15.19468
  109.30000   29.60049   15.18667
  109.35000   29.56291   15.17818
  109.40000   29.50226   15.17136
  109.45000   29.14490   15.17443
  109.50000   29.12749   15.18154
  109.55000   28.95106   15.19157
  109.60000   28.77292   15.20159
  109.65000   28.38500   15.20959
  109.70000   28.33357   15.20882
  109.75000   28.57801   15.19186
  109.80000   28.90844   15.17457
  109.85000   28.91435   15.15519
  109.90000   29.35271   15.13344
  109.95000   29.66324   15.11375
  110.00000   29.92076   15.10221
  110.05000   30.32735   15.09840
  110.10000   30.39360   15.09227
  110.15000   30.60315   15.09201
  110.20000   31.04835   15.09566
  110.25000   31.38824   15.09400
  110.30000   31.60835   15.08904
  110.35000   31.98514   15.07602
  110.40000   32.08658   15.05566
  110.45000   32.10633   15.02751
  110.50000   32.30743   14.99820
  110.55000   32.40306   14.97389
  110.60000   32.44161   14.95249
  110.65000   32.69120   14.94204
  110.70000   32.68932   14.93651
  110.75000   32.66574   14.92398
  110.80000   32.60826   14.90264
  110.85000   32.40901   14.88024
  110.90000   32.03622   14.85236
  110.95000   31.62628   14.81813
  111.00000   31.41109   14.78600
  111.05000   31.59138   14.76526
  111.10000   31.54941   14.75071
  111.15000   31.33044   14.73614
  111.20000   31.28904   14.72610
  111.25000   31.12033   14.71922
  111.30000   31.42558   14.71168
  111.35000   31.10041   14.70099
  111.40000   31.01535   14.68188
  111.45000   31.10945   14.65857
  111.50000   31.41553   14.63569
  111.55000   31.58721   14.61267
  111.60000   31.74274   14.58748
  111.65000   31.52333   14.56357
  111.70000   31.49071   14.54830
  111.75000   31.74120   14.53360
  111.80000   31.83826   14.51750
  111.85000   31.84234   14.50190
  111.90000   31.69747   14.49086
  111.95000   31.61579   14.47425
  112.00000   31.37599   14.43585
  112.05000   31.59935   14.38946
  112.10000   31.68618   14.34387
  112.15000   31.63638   14.29770
  112.20000   31.51631   14.25039
  112.25000   31.45881   14.21289
  112.30000   31.26236   14.19834
  112.35000   31.28758   14.18462
  112.40000   31.27240   14.16571
  112.45000   31.63291   14.14115
  112.50000   31.96632   14.11384
  112.55000   32.44164   14.08012
  112.60000   32.69326   14.04033
  112.65000   32.50620   14.00614
  112.70000   32.31057   13.97286
  112.75000   32.43983   13.94660
  112.80000   32.80223   13.92858
  112.85000   32.93009   13.92344
  112.90000   32.99714   13.92937
  112.95000   33.07393   13.93255
  113.00000   32.84400   13.93623
  113.05000   32.87797   13.92714
  113.10000   32.57392   13.89098
  113.15000   32.21644   13.84357
  113.20000   32.13108   13.79382
  113.25000   32.14869   13.75073
  113.30000   31.98094   13.71379
  113.35000   31.95015   13.68944
  113.40000   31.94255   13.69310
  113.45000   32.04739   13.69802
  113.50000   32.17987   13.69126
  113.55000   32.02000   13.67725
  113.60000   32.07699   13.66212
  113.65000   31.63898   13.64068
  113.70000   31.93100   13.60697
  113.75000   32.36185   13.57428
  113.80000   32.30076   13.54973
  113.85000   32.10957   13.52600
  113.90000   32.16633   13.50488
  113.95000   32.06843   13.48984
  114.00000   31.69274   13.48199
  114.05000   31.49551   13.47749
  114.10000   31.30560   13.47424
  114.15000   31.23119   13.46920
  114.20000   31.61944   13.45862
  114.25000   31.72784   13.44985
  114.30000   31.47190   13.43829
  114.35000   31.06094   13.42656
  114.40000   30.87533   13.42102
  114.45000   30.71183   13.42184
  114.50000   30.66358   13.42721
  114.55000   30.36151   13.43195
  114.60000   30.16369   13.43834
  114.65000   30.20420   13.44590
  114.70000   30.42348   13.44947
  114.75000   30.68255   13.45303
  114.80000   30.59378   13.45782
  114.85000   30.98517   13.46391
  114.90000   31.60193   13.47104
  114.95000   32.26524   13.47694
  115.00000   32.80430   13.48274
  115.05000   33.27255   13.48749
  115.10000   33.58625   13.49061
  115.15000   33.98846   13.48872
  115.20000   34.53796   13.48433
  115.25000   34.56431   13.47783
  115.30000   34.58355   13.46752
  115.35000   34.75766   13.45313
  115.40000   34.97603   13.43923
  115.45000   34.97534   13.43108
  115.50000   34.85260   13.42714
  115.55000   34.74688   13.43081
  115.60000   34.94262   13.44381
  115.65000   35.07518   13.46244
  115.70000   35.56790   13.48422
  115.75000   36.04643   13.50470
  115.80000   36.67236   13.52149
  115.85000   37.02662   13.53169
  115.90000   37.29266   13.53485
  115.95000   37.51582   13.53194
  116.00000   37.94076   13.52389
  116.05000   38.75355   13.51389
  116.10000   39.34224   13.50358
  116.15000   40.25248   13.49281
  116.20000   40.91692   13.48469
  116.25000   41.56409   13.47811
  116.30000   42.24827   13.47859
  116.35000   42.49218   13.50036
  116.40000   42.62092   13.53025
  116.45000   43.00605   13.56191
  116.50000   43.45917   13.58934
  116.55000   43.38014   13.61503
  116.60000   43.29985   13.61434
  116.65000   42.94274   13.58840
  116.70000   42.85849   13.55953
  116.75000   42.79997   13.55066
  116.80000   42.70504   13.55448
  116.85000   42.31779   13.57077
  116.90000   42.19404   13.61414
  116.95000   42.23834   13.66955
  117.00000   42.71951   13.72888
  117.05000   42.78419   13.77875
  117.10000   43.06402   13.83297
  117.15000   42.99116   13.88612
  117.20000   42.90766   13.93719
  117.25000   42.67447   13.99030
  117.30000   42.23593   14.05140
  117.35000   41.41370   14.10932
  117.40000   40.64243   14.16124
  117.45000   40.58558   14.21316
  117.50000   40.15016   14.26349
  117.55000   39.24744   14.30504
  117.60000   38.13249   14.33639
  117.65000   37.33844   14.36443
  117.70000   36.43077   14.38958
  117.75000   35.54966   14.40621
  117.80000   34.64988   14.40886
  117.85000   34.27413   14.40171
  117.90000   33.97466   14.38178
  117.95000   33.67998   14.33753
  118.00000   33.07503   14.26531
  118.05000   32.59113   14.18848
  118.10000   32.53905   14.11631
  118.15000   32.40988   14.04657
  118.20000   32.64107   13.98159
  118.25000   32.45750   13.93882
  118.30000   32.35389   13.90655
  118.35000   32.50439   13.86447
  118.40000   32.84352   13.81929
  118.45000   33.02408   13.77692
  118.50000   33.31516   13.73940
  118.55000   33.67249   13.70919
  118.60000   34.01054   13.69823
  118.65000   34.05555   13.70056
  118.70000   33.96098   13.70392
  118.75000   33.65061   13.69417
  118.80000   33.47870   13.67911
  118.85000   33.77160   13.66011
  118.90000   33.94528   13.64460
  118.95000   33.89390   13.64090
  119.00000   33.86183   13.64618
  119.05000   33.85966   13.66742
  119.10000   33.92510   13.70493
  119.15000   34.07257   13.74331
  119.20000   34.22186   13.75266
  119.25000   34.30793   13.75308
  119.30000   34.43768   13.77101
  119.35000   34.93019   13.79327
  119.40000   34.95997   13.80149
