#------------------------------------------------------------
~VERSION INFORMATION
VERS.               2.0  :CWLS LOG ASCII STANDARD - VERSION 2.0
WRAP.               YES  :MULTIPLE LINES PER DEPTH STEP
#------------------------------------------------------------
~WELL INFORMATION
STRT.M        0.4629000  :FIRST INDEX VALUE
STOP.M         166.9829  :LAST INDEX VALUE
STEP.M        0.0000000  :STEP
NULL.            -99999  :NULL VALUE
COMP.                    :COMPANY
WELL.                    :WELL
FLD.                     :FIELD
LOC.                     :LOCATION
SRVC.                    :
CTRY.                    :COUNTRY
STAT.                    :STATE
CNTY.                    :
DATE.                    :DATE
API.                     :
#------------------------------------------------------------
~CURVE INFORMATION
DEPT.M                   :DEPTH
SPEED.M/MIN              :Speed
TIME.SEC                 :Time
POSCOUNT.COUNT           :Poscount
NEGCOUNT.COUNT           :Negcount
POSDT.SEC                :Posdt
NEGDT.SEC                :Negdt
DEEP_INDUCTION.MS/M      :Deep Induction
MEDIUM_INDUCTION.MS/M    :Medium Induction
DEEP_RES.OHM-M           :Deep Res
MEDIUM_RES.OHM-M         :Medium Res
#------------------------------------------------------------
~PARAMETER INFORMATION
STE.                     :STE
TWP.                     :TWP
TYPE_FLUID_IN_HOLE.      :TYPE FLUID IN HOLE
CASING_FROM1.            :CASING FROM1
CASING_FROM2.            :CASING FROM2
CASING_FROM3.            :CASING FROM3
CASING_FROM4.            :CASING FROM4
BIT_TO3.                 :BIT TO3
CASING_FROM5.            :CASING FROM5
CASING_FROM6.            :CASING FROM6
BIT4.                    :BIT4
PERMANENT_DATUM.         :PERMANENT DATUM
BIT_TO2.                 :BIT TO2
K_B_.                    :K.B.
BIT5.                    :BIT5
BIT_TO1.                 :BIT TO1
TYPE_LOG.                :TYPE LOG
WELL_ID.                 :WELL ID
RUN1.                    :RUN1
RGE.                     :RGE
CO.                      :CO
ELEVATION.               :ELEVATION
TOP_LOGGED_INTERVAL.     :TOP LOGGED INTERVAL
RUN2.                    :RUN2
BTM_LOGGED_INTERVAL.     :BTM LOGGED INTERVAL
RUN3.                    :RUN3
BIT_TO6.                 :BIT TO6
WGT3.                    :WGT3
LOG_MEAS__FROM.          :LOG MEAS. FROM
RUN4.                    :RUN4
BIT_TO5.                 :BIT TO5
WGT2.                    :WGT2
D_F_.                    :D.F.
BIT_FROM2.               :BIT FROM2
RUN5.                    :RUN5
BIT_TO4.                 :BIT TO4
WGT1.                    :WGT1
BIT_FROM3.               :BIT FROM3
DEPTH-LOGGER.            :DEPTH-LOGGER
RUN6.                    :RUN6
RECORDED_BY.             :RECORDED BY
CTY.                     :CTY
MAX__REC__TEMP_.         :MAX. REC. TEMP.
BIT_FROM1.               :BIT FROM1
SEC.                     :SEC
CASING_TO1.              :CASING TO1
CASING_TO2.              :CASING TO2
CASING_TO3.              :CASING TO3
SALINITY.                :SALINITY
CASING_TO4.              :CASING TO4
CASING_TO5.              :CASING TO5
CASING_TO6.              :CASING TO6
WGT6.                    :WGT6
G_L_.                    :G.L.
BIT_FROM6.               :BIT FROM6
LEVEL.                   :LEVEL
WGT5.                    :WGT5
BIT2.                    :BIT2
DEPTH-DRILLER.           :DEPTH-DRILLER
DENSITY.                 :DENSITY
WITNESSED_BY.            :WITNESSED BY
WGT4.                    :WGT4
RUN_No.                  :RUN No
BIT3.                    :BIT3
BIT_FROM4.               :BIT FROM4
CASING_SIZE1.            :CASING SIZE1
CASING_SIZE2.            :CASING SIZE2
CASING_SIZE3.            :CASING SIZE3
CASING_SIZE4.            :CASING SIZE4
CASING_SIZE5.            :CASING SIZE5
CASING_SIZE6.            :CASING SIZE6
OTHER_SERVICES.          :OTHER SERVICES
BIT_FROM5.               :BIT FROM5
OPERATING_RIG_TIME.      :OPERATING RIG TIME
TITLE.                   :TITLE
BIT1.                    :BIT1
FILING_No.               :FILING No
DRILLING_MEAS__FROM.     :DRILLING MEAS. FROM
BIT6.                    :BIT6
#------------------------------------------------------------
~OTHER
#------------------------------------------------------------
~A
# ...
   144.3829
     5.325000    0.1250382     52.01527     54.01679    0.1229583
    0.1223195     54.92981     31.00391     18.20521     32.25399
   144.3929
     5.275152    0.1000000     42.00000     43.49847   0.09846922
   0.09784240     54.88298     30.87037     18.22067     32.39352
   144.4029
     5.225000    0.1000000     41.50229     43.50229   0.09700665
   0.09765263     54.97979     30.73301     18.18850     32.53830
   144.4129
     5.225000    0.1249618     51.98321     54.48244    0.1217489
    0.1226854     54.66786     30.60827     18.29280     32.67090
   144.4229
     5.225000    0.1250762     52.53201     54.53506    0.1227662
    0.1227243     54.49092     30.43604     18.35176     32.85578
   144.4329
     5.225000    0.1000000     42.49771     43.49771   0.09857251
   0.09735232     54.78605     30.23051     18.25302     33.07916
   144.4429
     5.225000    0.1249238     52.96951     54.96646    0.1231513
    0.1235340     54.89443     30.05464     18.21681     33.27274
   144.4529
     5.225000    0.1251145     52.54809     54.55267    0.1219436
    0.1225604     54.64800     29.86610     18.29912     33.48278
   144.4629
     5.225000    0.1000000     42.49771     43.49771   0.09798180
   0.09732395     54.47353     29.66994     18.35754     33.70415
   144.4729
     5.225000    0.1000000     42.50153     44.00000   0.09783136
   0.09837542     54.45412     29.48810     18.36409     33.91198
   144.4829
     5.237442    0.1248855     52.94962     54.94962    0.1222387
    0.1232592     54.33905     29.36965     18.40303     34.04876
   144.4929
     5.250000    0.1251145     53.05038     54.55267    0.1223195
    0.1223603     54.19754     29.29060     18.45104     34.14064
   144.5029
     5.250000    0.1000000     42.49847     43.49847   0.09733294
   0.09715512     54.17398     29.24188     18.45905     34.19753
   144.5129
     5.250000    0.1248855     53.45191     54.94962    0.1227437
    0.1233444     54.12245     29.17388     18.47666     34.27724
   144.5229
     5.250000    0.1250762     53.53201     54.53506    0.1227127
    0.1224592     54.04327     29.14513     18.50369     34.31105
   144.5329
     5.250000    0.1000000     43.00000     43.49771   0.09789542
   0.09737516     53.92345     29.12961     18.54489     34.32932
   144.5429
     5.250000    0.1000000     43.00000     44.00000   0.09770793
   0.09856006     53.68866     29.08936     18.62600     34.37683
   144.5529
     5.250000    0.1249238     53.96646     54.46799    0.1229606
    0.1225697     53.51873     29.00678     18.68506     34.47470
   144.5629
     5.250000    0.1251145     54.05038     54.05038    0.1229941
    0.1216672     53.40059     28.97253     18.72641     34.51545
   144.5729
     5.250000    0.1000000     43.00000     43.49771   0.09724894
   0.09756261     53.28621     28.88452     18.76660     34.62062
   144.5829
     5.250000    0.1249238     53.96646     54.46799    0.1224914
    0.1228364     53.32457     28.81434     18.75313     34.70494
   144.5929
     5.250000    0.1251145     54.05038     54.54809    0.1225325
    0.1228395     53.20811     28.81332     18.79440     34.70617
   144.6029
     5.250000    0.1000000     43.49771     44.00000   0.09802794
   0.09852757     53.02787     28.77752     18.85801     34.74934
   144.6129
     5.250000    0.1000000     43.50153     43.50153   0.09798112
   0.09766489     53.11629     28.74225     18.82664     34.79199
   144.6229
     5.250000    0.1248855     53.94962     53.94962    0.1219150
    0.1217285     53.16539     28.69508     18.80923     34.84918
   144.6329
     5.250000    0.1250382     54.51603     54.51603    0.1230396
    0.1228838     53.18812     28.64143     18.80120     34.91446
   144.6429
     5.250000    0.1000000     44.00000     44.00000   0.09869325
   0.09869184     53.32201     28.58247     18.75404     34.98648
   144.6529
     5.237557    0.1248855     54.45191     54.45191    0.1225556
    0.1225814     53.20349     28.49561     18.79607     35.09312
   144.6629
     5.225000    0.1250382     54.51603     54.51603    0.1226798
    0.1226205     52.96478     28.42064     18.88047     35.18570
   144.6729
     5.225000    0.1000000     43.50153     43.50153   0.09748531
   0.09731546     53.24833     28.37072     18.78055     35.24761
   144.6829
     5.225000    0.1000000     43.49771     43.49771   0.09748481
   0.09725423     53.56406     28.32191     18.66924     35.30835
   144.6929
     5.225000    0.1249238     54.46799     54.96646    0.1226372
    0.1234614     53.62854     28.21675     18.64681     35.43993
   144.7029
     5.225000    0.1251145     54.54809     54.55267    0.1228477
    0.1225447     53.67540     28.20422     18.63051     35.45568
   144.7129
     5.225000    0.1000000     43.50229     43.49771   0.09757632
   0.09730036     53.67397     28.16778     18.63100     35.50155
   144.7229
     5.225000    0.1249238     54.46494     54.46799    0.1229172
    0.1225426     53.67699     28.17077     18.62996     35.49778
   144.7329
     5.225000    0.1251145     54.55267     54.54809    0.1233050
    0.1229005     53.61374     28.14221     18.65196     35.53382
   144.7429
     5.237442    0.1000000     43.00000     44.00000   0.09692149
   0.09870733     53.52460     28.14999     18.68300     35.52399
   144.7529
     5.250000    0.1000000     43.00000     43.50153   0.09716888
   0.09766725     53.47608     28.17150     18.69995     35.49686
   144.7629
     5.250000    0.1248855     53.94962     53.94962    0.1229764
    0.1220429     53.46548     28.16778     18.70366     35.50155
   144.7729
     5.250000    0.1250762     54.03354     54.03354    0.1235150
    0.1222706     53.21886     28.19012     18.79076     35.47342
   144.7829
     5.250000    0.1000000     42.50229     43.49771   0.09700840
   0.09795338     52.97990     28.18447     18.87509     35.48053
   144.7929
     5.250000    0.1248855     52.94962     53.95420    0.1219107
    0.1225180     52.87064     28.16859     18.91420     35.50054
   144.8029
     5.250000    0.1250762     53.53201     53.53201    0.1236335
    0.1218941     52.95038     28.15555     18.88590     35.51698
   144.8129
     5.250000    0.1000000     42.50229     43.49771   0.09798426
   0.09873378     53.03473     28.16445     18.85567     35.50576
   144.8229
     5.250000    0.1248855     52.45191     53.95420    0.1217868
    0.1231377     52.80724     28.17442     18.93687     35.49319
   144.8329
     5.262462    0.1250762     52.53201     53.53201    0.1222030
    0.1222281     52.59283     28.19880     19.01409     35.46251
   144.8429
     5.275000    0.1000000     42.00000     43.00000   0.09744837
   0.09779742     52.34338     28.22121     19.10475     35.43434
   144.8529
     5.275000    0.1000000     42.00000     43.00000   0.09763453
   0.09793072     52.23840     28.21453     19.14301     35.44273
   144.8629
     5.275000    0.1249238     52.46799     53.46799    0.1228077
    0.1226342     52.20423     28.21672     19.15557     35.43998
   144.8729
     5.275000    0.1251145     52.54809     53.54809    0.1231538
    0.1229437     52.10347     28.19560     19.19259     35.46653
   144.8829
     5.275000    0.1000000     42.00000     42.50076   0.09812675
   0.09718107     51.93996     28.11320     19.25312     35.57048
   144.8929
     5.275000    0.1249238     51.96951     52.96646    0.1222527
    0.1219079     51.79177     28.10523     19.30809     35.58057
   144.9029
     5.275000    0.1251145     52.04580     53.54809    0.1226825
    0.1233953     51.67638     28.03339     19.35127     35.67174
   144.9129
     5.287481    0.1000000     41.50076     42.50076   0.09760480
   0.09748866     51.49995     27.92486     19.41754     35.81039
   144.9229
     5.300000    0.1000000     41.49847     42.49847   0.09784403
   0.09757801     51.37736     27.79894     19.46384     35.97259
   144.9329
     5.300000    0.1248855     51.45649     53.45191    0.1222763
    0.1233485     51.29161     27.65879     19.49638     36.15487
