~Version ---------------------------------------------------
VERS.   2.0 : CWLS log ASCII Standard -VERSION 2.0
WRAP.    NO : One line per depth step
DLM . SPACE : Column Data Section Delimiter
~Well ------------------------------------------------------
STRT.m                      1.45 : START DEPTH
STOP.m                     166.6 : STOP DEPTH
STEP.m      0.050000000000000044 : STEP
NULL.                   -9999.25 : NULL VALUE
COMP.       Geoscience Australia : COMPANY
WELL.                    13BP01D : WELL
FLD .                            : FIELD
LOC .                            : LOCATION
PROV.                            : PROVINCE
CNTY.                            : COUNTY
STAT.                            : STATE
CTRY.                        AUS : COUNTRY
SRVC.                            : SERVICE COMPANY
DATE. 2019-05-28 16:13:54.403781 : DATE
UWI .                     627061 : UNIQUE WELL ID
API .                            : API NUMBER
X   .                   473886.6 : eastings (m)
Y   .                  8333260.7 : northings (m)
GDAT.                      GDA94 : geodetic datum
HZCS.                MGA zone 52 : Horizontal Co-ordinate System
PDAT.                         GL : Local Permanent Datum
LMF .    top of casing protector : Logging Measured From
APD .m                      0.73 : Elevation of Depth Reference (LMF) Above Permanent Datum
EPD .mAHD                  84.04 : Elevation of Permanent Datum (PDAT) above Mean Sea Level
~Curve Information -----------------------------------------
DEPT                          .m     : 
GR                            .API   : 
INDUCTION_BOREHOLE_COMPENSATED.mS/m  : 
~Params ----------------------------------------------------
~Other -----------------------------------------------------
Filtered  induction gamma logs for the East Kimberley EFtF project. Depth measurements are relative to a 
~ASCII -----------------------------------------------------
# ...
   84.05000   40.56120   20.70461
   84.10000   41.02018   20.58280
   84.15000   41.28504   20.44743
   84.20000   41.64819   20.31147
   84.25000   41.93971   20.17674
   84.30000   42.52408   20.01561
   84.35000   43.01230   19.83833
   84.40000   43.05436   19.69102
   84.45000   43.36010   19.53688
   84.50000   43.60292   19.39390
   84.55000   43.69247   19.27366
   84.60000   43.61516   19.19690
   84.65000   43.55917   19.15543
   84.70000   43.35089   19.13794
   84.75000   43.58821   19.14592
   84.80000   43.51507   19.16315
   84.85000   43.30703   19.18748
   84.90000   42.79187   19.21430
   84.95000   42.48650   19.24087
   85.00000   42.23610   19.26604
   85.05000   41.71271   19.28476
   85.10000   41.24168   19.29528
   85.15000   41.01652   19.29625
   85.20000   40.67207   19.29753
   85.25000   40.76165   19.30770
   85.30000   40.62242   19.32933
   85.35000   40.41054   19.39744
   85.40000   40.71459   19.51587
   85.45000   40.84861   19.64281
   85.50000   40.85091   19.76700
   85.55000   40.56332   19.88132
   85.60000   40.69053   19.97500
   85.65000   41.00525   20.01465
   85.70000   41.54607   20.00729
   85.75000   41.74596   19.98643
   85.80000   41.73969   19.95737
   85.85000   41.39828   19.92044
   85.90000   41.06018   19.88814
   85.95000   40.78683   19.85642
   86.00000   40.27496   19.81656
   86.05000   40.33186   19.79290
   86.10000   40.13719   19.77748
   86.15000   40.19824   19.75576
   86.20000   39.76581   19.72191
   86.25000   39.27178   19.67797
   86.30000   38.81048   19.63717
   86.35000   38.31269   19.56686
   86.40000   37.69297   19.48628
   86.45000   37.50570   19.41760
   86.50000   37.29207   19.35981
   86.55000   36.75191   19.31846
   86.60000   36.21663   19.29673
   86.65000   35.38330   19.30656
   86.70000   35.07779   19.32820
   86.75000   34.45652   19.35465
   86.80000   34.18580   19.38164
   86.85000   34.00458   19.41568
   86.90000   33.67213   19.46099
   86.95000   33.49573   19.51466
   87.00000   33.27212   19.56841
   87.05000   32.72069   19.60838
   87.10000   32.52808   19.62041
   87.15000   32.30390   19.58538
   87.20000   32.22817   19.48755
   87.25000   32.11881   19.34524
   87.30000   32.05914   19.18463
   87.35000   32.40176   19.01581
   87.40000   32.47003   18.86322
   87.45000   32.38620   18.74410
   87.50000   32.44927   18.66516
   87.55000   32.97342   18.62340
   87.60000   33.60959   18.62549
   87.65000   34.01724   18.66435
   87.70000   34.24556   18.71782
   87.75000   34.76399   18.78266
   87.80000   34.87659   18.84897
   87.85000   35.28775   18.89923
   87.90000   35.50785   18.92113
   87.95000   35.24635   18.93026
   88.00000   35.18333   18.92876
   88.05000   34.69391   18.91325
   88.10000   34.62025   18.89722
   88.15000   34.06164   18.88379
   88.20000   33.32748   18.87384
   88.25000   32.95793   18.86613
   88.30000   32.18658   18.86232
   88.35000   31.48815   18.86050
   88.40000   30.94847   18.85401
   88.45000   30.34405   18.83528
   88.50000   29.96124   18.81383
   88.55000   29.64607   18.79208
   88.60000   29.48003   18.76414
   88.65000   29.50756   18.73506
   88.70000   29.65240   18.70885
   88.75000   29.64250   18.69588
   88.80000   29.87050   18.68101
   88.85000   30.02771   18.66855
   88.90000   30.37418   18.67734
   88.95000   30.43739   18.68632
   89.00000   30.55211   18.68724
   89.05000   30.74275   18.68287
   89.10000   31.22685   18.68116
   89.15000   31.97888   18.67520
   89.20000   32.39267   18.65200
   89.25000   32.92946   18.63209
   89.30000   33.69043   18.61795
   89.35000   34.73404   18.59810
   89.40000   35.33544   18.57345
   89.45000   36.17885   18.54747
   89.50000   37.09063   18.52373
   89.55000   37.81582   18.49942
   89.60000   38.20640   18.47962
   89.65000   38.30477   18.46789
   89.70000   37.99624   18.45737
   89.75000   37.60799   18.44428
   89.80000   37.61398   18.42937
   89.85000   37.44637   18.41745
   89.90000   36.98586   18.40617
   89.95000   36.48412   18.39331
   90.00000   36.40135   18.38367
   90.05000   35.78389   18.38276
   90.10000   35.24652   18.39266
   90.15000   34.94433   18.40757
   90.20000   34.80272   18.42513
   90.25000   34.56306   18.43953
   90.30000   34.60550   18.46577
   90.35000   34.29983   18.48289
   90.40000   33.94618   18.49383
   90.45000   33.30969   18.50119
   90.50000   33.01210   18.50366
   90.55000   32.56242   18.50610
   90.60000   32.30391   18.49995
   90.65000   31.99778   18.49732
   90.70000   31.74352   18.49457
   90.75000   31.28015   18.48837
   90.80000   31.23185   18.47926
   90.85000   31.36352   18.46797
   90.90000   30.81818   18.45788
   90.95000   30.83459   18.44482
   91.00000   30.89282   18.43172
   91.05000   31.12708   18.41834
   91.10000   31.49192   18.40343
   91.15000   31.73351   18.38810
   91.20000   31.89906   18.37362
   91.25000   32.35942   18.36246
   91.30000   32.79314   18.35258
   91.35000   32.94052   18.34477
   91.40000   32.52985   18.33482
   91.45000   32.23334   18.31984
   91.50000   32.44316   18.29323
   91.55000   32.58756   18.25156
   91.60000   32.48362   18.20529
   91.65000   32.16014   18.15499
   91.70000   31.94538   18.10755
   91.75000   31.89969   18.06154
   91.80000   31.85488   18.02284
   91.85000   31.45521   17.99170
   91.90000   31.37429   17.96247
   91.95000   31.68939   17.93515
   92.00000   32.44370   17.90552
   92.05000   33.15373   17.87600
   92.10000   33.32872   17.84752
   92.15000   33.35420   17.81121
   92.20000   33.56711   17.74995
   92.25000   33.72607   17.68095
   92.30000   33.83983   17.61562
   92.35000   33.86043   17.55261
   92.40000   33.91394   17.49038
   92.45000   34.24318   17.43500
   92.50000   34.55122   17.39898
   92.55000   34.79384   17.36316
   92.60000   35.20781   17.31968
   92.65000   35.43219   17.25599
   92.70000   35.84081   17.18801
   92.75000   36.40443   17.12049
   92.80000   37.20583   17.04904
   92.85000   38.04998   16.97817
   92.90000   38.75291   16.91456
   92.95000   39.76448   16.87423
   93.00000   40.58043   16.84521
   93.05000   41.65965   16.82989
   93.10000   42.83900   16.82769
   93.15000   44.25411   16.83533
   93.20000   45.61381   16.85375
   93.25000   47.21809   16.88099
   93.30000   49.02898   16.91691
   93.35000   50.44090   16.98672
   93.40000   51.45468   17.07530
   93.45000   53.63159   17.18305
   93.50000   56.02005   17.31449
   93.55000   58.77359   17.49990
   93.60000   61.82620   17.73889
   93.65000   65.17323   18.01427
   93.70000   68.97483   18.36274
   93.75000   73.60844   18.72419
   93.80000   78.96315   19.06670
   93.85000   84.45941   19.37147
   93.90000   89.63039   19.65243
   93.95000   94.28930   19.90146
   94.00000   98.47179   20.12242
   94.05000  101.38159   20.41173
   94.10000  103.78059   20.73441
   94.15000  106.36037   21.05165
   94.20000  109.08740   21.33651
   94.25000  110.90540   21.58047
   94.30000  111.31902   21.73721
   94.35000  109.36458   21.74328
   94.40000  105.68998   21.66120
   94.45000  100.08775   21.50964
   94.50000   94.07472   21.29930
   94.55000   88.17176   21.03777
   94.60000   82.25335   20.75195
   94.65000   76.50665   20.47912
   94.70000   71.00937   20.21506
   94.75000   64.44818   19.90113
   94.80000   57.22491   19.56431
   94.85000   50.26380   19.25310
   94.90000   44.35356   18.92407
   94.95000   39.48390   18.58674
   95.00000   36.12873   18.24577
   95.05000   34.43132   17.98414
   95.10000   33.56671   17.76785
   95.15000   33.08635   17.57496
   95.20000   33.00343   17.43909
   95.25000   33.14299   17.33764
   95.30000   32.73040   17.26261
   95.35000   32.62242   17.20920
   95.40000   32.76201   17.16223
   95.45000   32.89301   17.10939
   95.50000   33.04317   17.08035
   95.55000   33.52390   17.05368
   95.60000   33.85762   17.03550
   95.65000   34.22249   17.00582
   95.70000   34.14758   16.98057
   95.75000   34.05558   16.96299
   95.80000   33.70376   16.93615
