~Version ---------------------------------------------------
VERS.   2.0 : CWLS log ASCII Standard -VERSION 2.0
WRAP.    NO : One line per depth step
DLM . SPACE : Column Data Section Delimiter
~Well ------------------------------------------------------
STRT.m                      1.45 : START DEPTH
STOP.m                     166.6 : STOP DEPTH
STEP.m      0.050000000000000044 : STEP
NULL.                   -9999.25 : NULL VALUE
COMP.       Geoscience Australia : COMPANY
WELL.                    13BP01D : WELL
FLD .                            : FIELD
LOC .                            : LOCATION
PROV.                            : PROVINCE
CNTY.                            : COUNTY
STAT.                            : STATE
CTRY.                        AUS : COUNTRY
SRVC.                            : SERVICE COMPANY
DATE. 2019-05-28 16:13:54.403781 : DATE
UWI .                     627061 : UNIQUE WELL ID
API .                            : API NUMBER
X   .                   473886.6 : eastings (m)
Y   .                  8333260.7 : northings (m)
GDAT.                      GDA94 : geodetic datum
HZCS.                MGA zone 52 : Horizontal Co-ordinate System
PDAT.                         GL : Local Permanent Datum
LMF .    top of casing protector : Logging Measured From
APD .m                      0.73 : Elevation of Depth Reference (LMF) Above Permanent Datum
EPD .mAHD                  84.04 : Elevation of Permanent Datum (PDAT) above Mean Sea Level
~Curve Information -----------------------------------------
DEPT                          .m     : 
GR                            .API   : 
INDUCTION_BOREHOLE_COMPENSATED.mS/m  : 
~Params ----------------------------------------------------
~Other -----------------------------------------------------
Filtered  induction gamma logs for the East Kimberley EFtF project. Depth measurements are relative to a 
~ASCII -----------------------------------------------------
# ...
  131.25000  109.15260   23.97049
  131.30000  109.76237   23.92446
  131.35000  109.55866   23.87653
  131.40000  109.11156   23.84359
  131.45000  108.06819   23.81776
  131.50000  107.02656   23.79228
  131.55000  106.59059   23.75606
  131.60000  106.29832   23.70596
  131.65000  106.36044   23.63276
  131.70000  105.63629   23.52470
  131.75000  105.20193   23.37772
  131.80000  105.13361   23.21358
  131.85000  104.01195   23.02641
  131.90000  103.10096   22.83124
  131.95000  101.78426   22.64720
  132.00000  100.63421   22.46994
  132.05000   98.57249   22.27572
  132.10000   97.25094   22.08076
  132.15000   96.23467   21.90848
  132.20000   94.89845   21.72768
  132.25000   94.15642   21.53220
  132.30000   93.63673   21.30620
  132.35000   92.39281   21.05041
  132.40000   90.60210   20.75421
  132.45000   89.58868   20.44571
  132.50000   88.52447   20.13928
  132.55000   87.26076   19.83564
  132.60000   85.69537   19.57296
  132.65000   84.27961   19.34662
  132.70000   82.35415   19.14709
  132.75000   79.65725   18.95604
  132.80000   77.13853   18.78190
  132.85000   73.87681   18.59234
  132.90000   71.06248   18.39738
  132.95000   68.86357   18.19065
  133.00000   66.70122   17.98374
  133.05000   64.54146   17.78557
  133.10000   62.77166   17.58651
  133.15000   61.66423   17.39155
  133.20000   60.72527   17.19957
  133.25000   60.22991   17.02567
  133.30000   59.42384   16.84212
  133.35000   58.87798   16.64621
  133.40000   58.21746   16.46161
  133.45000   57.95826   16.29088
  133.50000   57.81107   16.13685
  133.55000   57.36052   16.00414
  133.60000   56.60080   15.88062
  133.65000   56.22750   15.75147
  133.70000   55.15913   15.61248
  133.75000   54.35615   15.48007
  133.80000   53.55042   15.34153
  133.85000   52.64759   15.20089
  133.90000   52.07399   15.07836
  133.95000   51.65764   14.98654
  134.00000   51.14387   14.92005
  134.05000   50.26179   14.87688
  134.10000   49.55191   14.84833
  134.15000   48.96331   14.81310
  134.20000   48.33736   14.75867
  134.25000   47.73911   14.69712
  134.30000   47.48400   14.63522
  134.35000   46.88876   14.57613
  134.40000   46.34118   14.52505
  134.45000   45.60033   14.49478
  134.50000   45.04725   14.48625
  134.55000   44.36945   14.48180
  134.60000   43.50511   14.47398
  134.65000   43.12997   14.46432
  134.70000   42.36135   14.45110
  134.75000   41.74955   14.43710
  134.80000   41.10805   14.42420
  134.85000   40.55668   14.41521
  134.90000   40.11692   14.41438
  134.95000   40.08182   14.41027
  135.00000   39.36894   14.41679
  135.05000   39.29205   14.42083
  135.10000   38.77823   14.42382
  135.15000   38.59553   14.43650
  135.20000   38.75965   14.44897
  135.25000   38.71924   14.47731
  135.30000   38.85929   14.49989
  135.35000   39.10276   14.52480
  135.40000   39.27986   14.53672
  135.45000   39.08856   14.53144
  135.50000   39.14210   14.52385
  135.55000   39.60662   14.50666
  135.60000   40.03854   14.49462
  135.65000   40.79057   14.49390
  135.70000   41.57117   14.50535
  135.75000   42.08164   14.52094
  135.80000   42.26413   14.53384
  135.85000   42.57681   14.54587
  135.90000   42.58680   14.55247
  135.95000   43.03234   14.55271
  136.00000   43.76684   14.55782
  136.05000   44.17549   14.57250
  136.10000   44.18808   14.59096
  136.15000   43.92554   14.60983
  136.20000   43.58695   14.62580
  136.25000   43.17421   14.64263
  136.30000   42.48161   14.65541
  136.35000   42.21907   14.66391
  136.40000   41.93796   14.67657
  136.45000   41.68135   14.68966
  136.50000   41.49118   14.70511
  136.55000   41.31438   14.72273
  136.60000   40.88848   14.73980
  136.65000   40.51920   14.75149
  136.70000   40.34150   14.76126
  136.75000   40.15765   14.79133
  136.80000   40.26750   14.82804
  136.85000   40.19250   14.86083
  136.90000   40.08039   14.89641
  136.95000   39.62514   14.93782
  137.00000   39.42114   14.98045
  137.05000   39.34608   15.01059
  137.10000   39.14309   15.04255
  137.15000   38.84255   15.07526
  137.20000   38.98496   15.10727
  137.25000   39.25443   15.13575
  137.30000   39.77752   15.16182
  137.35000   39.80988   15.18520
  137.40000   40.18469   15.20514
  137.45000   40.37241   15.23213
  137.50000   40.89359   15.25931
  137.55000   41.43007   15.29307
  137.60000   41.55613   15.32910
  137.65000   41.84146   15.36830
  137.70000   42.29175   15.41061
  137.75000   42.60176   15.45021
  137.80000   42.50388   15.49222
  137.85000   42.42215   15.52940
  137.90000   42.36534   15.56734
  137.95000   42.62330   15.60495
  138.00000   42.44868   15.63787
  138.05000   42.69059   15.66610
  138.10000   43.02026   15.69158
  138.15000   43.23695   15.72942
  138.20000   43.42544   15.77908
  138.25000   43.49103   15.83609
  138.30000   43.63432   15.89888
  138.35000   43.47854   15.96597
  138.40000   44.05340   16.03311
  138.45000   44.07163   16.08651
  138.50000   44.15960   16.12630
  138.55000   44.87607   16.16817
  138.60000   45.53018   16.22484
  138.65000   46.28880   16.30905
  138.70000   47.17309   16.42002
  138.75000   48.48465   16.55514
  138.80000   50.02968   16.69671
  138.85000   50.98274   16.84279
  138.90000   51.77107   17.04249
  138.95000   52.93745   17.27813
  139.00000   53.80333   17.57577
  139.05000   55.08378   17.94180
  139.10000   56.79772   18.42883
  139.15000   59.06787   19.03236
  139.20000   62.52746   19.81049
  139.25000   66.87646   20.82539
  139.30000   72.40366   22.01341
  139.35000   78.45352   23.34792
  139.40000   85.13981   24.70649
  139.45000   91.51314   26.10578
  139.50000   98.67445   27.39831
  139.55000  105.67958   28.56455
  139.60000  112.11680   29.59416
  139.65000  119.52070   30.46617
  139.70000  125.40047   31.25275
  139.75000  130.08642   31.88333
  139.80000  133.22966   32.40485
  139.85000  134.25364   32.76466
  139.90000  133.51311   33.01458
  139.95000  130.75118   33.12199
  140.00000  126.69086   33.04861
  140.05000  122.34507   32.84469
  140.10000  116.86285   32.52561
  140.15000  111.18134   32.15065
  140.20000  105.50490   31.69639
  140.25000   99.92257   31.27253
  140.30000   95.37457   30.93880
  140.35000   92.10171   30.67982
  140.40000   89.54213   30.47867
  140.45000   88.45155   30.35229
  140.50000   88.02516   30.33221
  140.55000   89.07868   30.37812
  140.60000   91.82800   30.47250
  140.65000   95.28906   30.59127
  140.70000   98.90265   30.73708
  140.75000  102.29039   30.89812
  140.80000  105.59714   31.11357
  140.85000  108.39910   31.36368
  140.90000  110.98475   31.62044
  140.95000  113.33576   31.88133
  141.00000  115.56475   32.11494
  141.05000  116.54374   32.31795
  141.10000  116.97816   32.45740
  141.15000  116.37782   32.54641
  141.20000  115.60130   32.59284
  141.25000  114.33626   32.63417
  141.30000  113.76293   32.72443
  141.35000  113.83332   32.87764
  141.40000  114.20648   33.06317
  141.45000  114.40076   33.28180
  141.50000  113.91100   33.51780
  141.55000  113.58766   33.73575
  141.60000  114.15513   34.04632
  141.65000  115.45039   34.51591
  141.70000  116.58392   35.09948
  141.75000  118.82418   35.75986
  141.80000  121.06407   36.51072
  141.85000  123.86727   37.39564
  141.90000  126.91353   38.53137
  141.95000  130.25846   39.77650
  142.00000  133.80028   41.33631
  142.05000  138.08376   43.19418
  142.10000  143.53924   45.35154
  142.15000  148.82697   47.74051
  142.20000  153.77654   49.95355
  142.25000  159.03214   52.20987
  142.30000  164.29276   54.30250
  142.35000  168.96769   56.31110
  142.40000  173.36152   58.06299
  142.45000  177.61898   59.51887
  142.50000  181.21140   60.72280
  142.55000  184.05720   61.54626
  142.60000  186.72563   62.04579
  142.65000  188.03471   62.04205
  142.70000  187.62861   61.61151
  142.75000  185.19777   60.85454
  142.80000  180.25001   60.01216
  142.85000  173.57077   59.10824
  142.90000  166.73649   58.18219
  142.95000  159.53121   57.31286
  143.00000  151.77388   56.57990
