~Version ---------------------------------------------------
VERS.   2.0 : CWLS log ASCII Standard -VERSION 2.0
WRAP.    NO : One line per depth step
DLM . SPACE : Column Data Section Delimiter
~Well ------------------------------------------------------
STRT.m                      1.45 : START DEPTH
STOP.m                     166.6 : STOP DEPTH
STEP.m      0.050000000000000044 : STEP
NULL.                   -9999.25 : NULL VALUE
COMP.       Geoscience Australia : COMPANY
WELL.                    13BP01D : WELL
FLD .                            : FIELD
LOC .                            : LOCATION
PROV.                            : PROVINCE
CNTY.                            : COUNTY
STAT.                            : STATE
CTRY.                        AUS : COUNTRY
SRVC.                            : SERVICE COMPANY
DATE. 2019-05-28 16:13:54.403781 : DATE
UWI .                     627061 : UNIQUE WELL ID
API .                            : API NUMBER
X   .                   473886.6 : eastings (m)
Y   .                  8333260.7 : northings (m)
GDAT.                      GDA94 : geodetic datum
HZCS.                MGA zone 52 : Horizontal Co-ordinate System
PDAT.                         GL : Local Permanent Datum
LMF .    top of casing protector : Logging Measured From
APD .m                      0.73 : Elevation of Depth Reference (LMF) Above Permanent Datum
EPD .mAHD                  84.04 : Elevation of Permanent Datum (PDAT) above Mean Sea Level
~Curve Information -----------------------------------------
DEPT                          .m     : 
GR                            .API   : 
INDUCTION_BOREHOLE_COMPENSATED.mS/m  : 
~Params ----------------------------------------------------
~Other -----------------------------------------------------
Filtered  induction gamma logs for the East Kimberley EFtF project. Depth measurements are relative to a 
~ASCII -----------------------------------------------------
# ...
   48.65000   35.87658   19.14207
   48.70000   35.48786   19.12388
   48.75000   35.03450   19.11873
   48.80000   34.65911   19.11716
   48.85000   34.95785   19.12491
   48.90000   35.32452   19.14982
   48.95000   35.32671   19.18351
   49.00000   35.47167   19.22126
   49.05000   35.28528   19.27519
   49.10000   35.23211   19.34937
   49.15000   35.18578   19.42735
   49.20000   35.33269   19.49837
   49.25000   35.47032   19.58770
   49.30000   36.07320   19.71525
   49.35000   36.09193   19.89222
   49.40000   36.19122   20.20677
   49.45000   36.02930   20.57374
   49.50000   36.11263   20.82659
   49.55000   36.20366   20.93254
   49.60000   36.17978   20.92262
   49.65000   36.12033   20.82783
   49.70000   36.16286   20.67919
   49.75000   35.99557   20.50772
   49.80000   35.70770   20.34443
   49.85000   35.37702   20.22034
   49.90000   35.07709   20.16645
   49.95000   34.87945   20.21379
   50.00000   34.54253   20.39336
   50.05000   34.23310   20.73748
   50.10000   34.29656   21.32394
   50.15000   33.99714   22.09261
   50.20000   33.66813   22.81536
   50.25000   33.69882   22.95494
   50.30000   33.69157   22.94845
   50.35000   33.70593   23.02840
   50.40000   33.86796   22.72358
   50.45000   33.94687   22.09715
   50.50000   34.03376   21.52047
   50.55000   34.33037   21.36941
   50.60000   34.64193   21.06701
   50.65000   34.61079   20.63590
   50.70000   34.60096   20.34052
   50.75000   34.48428   20.14408
   50.80000   34.33911   19.96719
   50.85000   33.97705   19.81897
   50.90000   33.89343   19.72566
   50.95000   33.78682   19.66235
   51.00000   33.58520   19.62308
   51.05000   33.55768   19.59198
   51.10000   33.28546   19.55105
   51.15000   33.07445   19.49513
   51.20000   32.85388   19.43531
   51.25000   33.23941   19.37035
   51.30000   33.64263   19.30322
   51.35000   34.36466   19.24304
   51.40000   34.89434   19.19744
   51.45000   35.10872   19.17084
   51.50000   35.36489   19.15106
   51.55000   35.44294   19.13797
   51.60000   35.69311   19.12502
   51.65000   36.01934   19.10621
   51.70000   36.02691   19.09285
   51.75000   36.40796   19.07612
   51.80000   36.70193   19.05311
   51.85000   36.34233   19.02969
   51.90000   36.11641   19.00857
   51.95000   35.71928   18.99288
   52.00000   35.74432   18.97350
   52.05000   35.59073   18.95818
   52.10000   35.52937   18.95111
   52.15000   35.74404   18.94396
   52.20000   35.95702   18.93505
   52.25000   35.79526   18.92007
   52.30000   35.83986   18.90423
   52.35000   35.44293   18.87673
   52.40000   35.08247   18.81962
   52.45000   34.61674   18.75812
   52.50000   34.38591   18.69916
   52.55000   34.44507   18.64391
   52.60000   34.29419   18.59328
   52.65000   34.20269   18.56249
   52.70000   34.31954   18.55936
   52.75000   34.10514   18.55654
   52.80000   33.89898   18.55218
   52.85000   33.85962   18.54800
   52.90000   33.73554   18.54866
   52.95000   33.88119   18.55519
   53.00000   34.28585   18.56631
   53.05000   34.33700   18.58888
   53.10000   34.43174   18.63312
   53.15000   34.01461   18.70071
   53.20000   33.89491   18.78911
   53.25000   33.97104   18.89634
   53.30000   33.82702   19.03301
   53.35000   34.21756   19.19605
   53.40000   34.93894   19.36301
   53.45000   36.02569   19.55006
   53.50000   38.36663   19.73163
   53.55000   40.62104   19.89355
   53.60000   43.21513   20.02024
   53.65000   46.84239   20.11236
   53.70000   50.77435   20.17273
   53.75000   55.09340   20.18322
   53.80000   60.38216   20.17478
   53.85000   65.62777   20.14428
   53.90000   70.73386   20.09017
   53.95000   75.43817   20.03440
   54.00000   78.66400   19.98569
   54.05000   81.47541   19.95536
   54.10000   83.99551   19.92436
   54.15000   86.52590   19.91245
   54.20000   88.24976   19.89028
   54.25000   88.93129   19.82189
   54.30000   88.53029   19.71666
   54.35000   86.59164   19.58416
   54.40000   83.49628   19.45031
   54.45000   79.81346   19.31695
   54.50000   75.99841   19.21737
   54.55000   71.69303   19.16134
   54.60000   67.89593   19.13297
   54.65000   64.13215   19.11032
   54.70000   59.52610   19.09422
   54.75000   55.00520   19.08756
   54.80000   51.22373   19.08369
   54.85000   47.51325   19.07848
   54.90000   44.92478   19.06643
   54.95000   43.00667   19.05877
   55.00000   41.57864   19.05383
   55.05000   40.97275   19.03101
   55.10000   41.12279   19.00287
   55.15000   41.65660   18.97248
   55.20000   42.54138   18.93757
   55.25000   43.62820   18.88948
   55.30000   44.57337   18.83337
   55.35000   45.62515   18.79002
   55.40000   46.55070   18.74750
   55.45000   47.22375   18.71108
   55.50000   48.19390   18.68772
   55.55000   49.07524   18.67807
   55.60000   50.05037   18.66428
   55.65000   50.38843   18.65139
   55.70000   50.13114   18.64054
   55.75000   50.16309   18.62847
   55.80000   50.29743   18.61726
   55.85000   50.35732   18.60522
   55.90000   50.75547   18.60317
   55.95000   50.90397   18.60029
   56.00000   51.43385   18.59947
   56.05000   51.74370   18.60436
   56.10000   51.81515   18.61618
   56.15000   52.00949   18.63724
   56.20000   52.05089   18.66209
   56.25000   52.45528   18.68762
   56.30000   52.35878   18.71605
   56.35000   52.16703   18.75645
   56.40000   51.92665   18.81426
   56.45000   51.81679   18.86942
   56.50000   51.38712   18.92294
   56.55000   50.85079   18.97736
   56.60000   50.36172   19.02873
   56.65000   49.87391   19.06550
   56.70000   49.03394   19.07972
   56.75000   48.14987   19.09431
   56.80000   47.16567   19.10944
   56.85000   46.71223   19.12615
   56.90000   46.53514   19.14833
   56.95000   46.22828   19.17872
   57.00000   45.56190   19.22145
   57.05000   44.97507   19.26252
   57.10000   44.80557   19.30344
   57.15000   44.63012   19.35318
   57.20000   44.00854   19.40359
   57.25000   44.14507   19.44825
   57.30000   43.97385   19.48327
   57.35000   44.16764   19.52076
   57.40000   44.23508   19.56465
   57.45000   44.25073   19.60221
   57.50000   44.06740   19.64053
   57.55000   43.65928   19.68254
   57.60000   43.64860   19.73201
   57.65000   44.19695   19.78608
   57.70000   44.09682   19.85333
   57.75000   44.38568   19.93578
   57.80000   45.32425   20.01304
   57.85000   45.78622   20.08543
   57.90000   46.70013   20.16114
   57.95000   47.67276   20.23828
   58.00000   48.36127   20.30461
   58.05000   48.77028   20.35885
   58.10000   49.57736   20.42723
   58.15000   50.63053   20.49558
   58.20000   51.75590   20.55190
   58.25000   52.06265   20.59867
   58.30000   52.99706   20.63227
   58.35000   53.36413   20.65922
   58.40000   52.84653   20.67186
   58.45000   52.27687   20.68335
   58.50000   51.82581   20.69058
   58.55000   51.70970   20.69361
   58.60000   51.83506   20.70144
   58.65000   51.34466   20.70724
   58.70000   51.17843   20.68761
   58.75000   50.73772   20.66807
   58.80000   49.48647   20.66687
   58.85000   48.81737   20.66921
   58.90000   47.66771   20.67053
   58.95000   46.78828   20.67375
   59.00000   46.43059   20.70783
   59.05000   45.94356   20.74313
   59.10000   45.73239   20.76962
   59.15000   44.77564   20.80610
   59.20000   43.81166   20.83525
   59.25000   43.53664   20.85367
   59.30000   43.48376   20.83951
   59.35000   43.75372   20.79786
   59.40000   44.53056   20.74543
   59.45000   45.43006   20.67251
   59.50000   46.62061   20.60647
   59.55000   48.26616   20.55506
   59.60000   50.26964   20.53356
   59.65000   51.86693   20.53718
   59.70000   53.48166   20.53351
   59.75000   55.21517   20.53330
   59.80000   57.47022   20.52519
   59.85000   58.76851   20.51213
   59.90000   59.33533   20.49006
   59.95000   59.42320   20.46406
   60.00000   59.57574   20.45443
   60.05000   59.35840   20.46088
   60.10000   58.76204   20.48832
   60.15000   57.98908   20.52090
   60.20000   57.00743   20.55558
   60.25000   56.13690   20.59184
   60.30000   54.96815   20.62108
   60.35000   53.53271   20.63134
   60.40000   51.88580   20.63221
