~Version ---------------------------------------------------
VERS.   2.0 : CWLS log ASCII Standard -VERSION 2.0
WRAP.    NO : One line per depth step
DLM . SPACE : Column Data Section Delimiter
~Well ------------------------------------------------------
STRT.m                      1.45 : START DEPTH
STOP.m                     166.6 : STOP DEPTH
STEP.m      0.050000000000000044 : STEP
NULL.                   -9999.25 : NULL VALUE
COMP.       Geoscience Australia : COMPANY
WELL.                    13BP01D : WELL
FLD .                            : FIELD
LOC .                            : LOCATION
PROV.                            : PROVINCE
CNTY.                            : COUNTY
STAT.                            : STATE
CTRY.                        AUS : COUNTRY
SRVC.                            : SERVICE COMPANY
DATE. 2019-05-28 16:13:54.403781 : DATE
UWI .                     627061 : UNIQUE WELL ID
API .                            : API NUMBER
X   .                   473886.6 : eastings (m)
Y   .                  8333260.7 : northings (m)
GDAT.                      GDA94 : geodetic datum
HZCS.                MGA zone 52 : Horizontal Co-ordinate System
PDAT.                         GL : Local Permanent Datum
LMF .    top of casing protector : Logging Measured From
APD .m                      0.73 : Elevation of Depth Reference (LMF) Above Permanent Datum
EPD .mAHD                  84.04 : Elevation of Permanent Datum (PDAT) above Mean Sea Level
~Curve Information -----------------------------------------
DEPT                          .m     : 
GR                            .API   : 
INDUCTION_BOREHOLE_COMPENSATED.mS/m  : 
~Params ----------------------------------------------------
~Other -----------------------------------------------------
Filtered  induction gamma logs for the East Kimberley EFtF project. Depth measurements are relative to a 
~ASCII -----------------------------------------------------
# ...
   25.05000   34.70261   16.38869
   25.10000   34.27848   16.32642
   25.15000   33.78048   16.27990
   25.20000   33.79633   16.24298
   25.25000   33.91901   16.21068
   25.30000   34.24991   16.18932
   25.35000   34.34955   16.18810
   25.40000   34.25105   16.19032
   25.45000   34.13992   16.19443
   25.50000   33.77662   16.19881
   25.55000   33.74757   16.19986
   25.60000   33.73326   16.20245
   25.65000   33.52237   16.20108
   25.70000   33.56697   16.19690
   25.75000   33.65769   16.19113
   25.80000   33.50730   16.18455
   25.85000   33.27070   16.18095
   25.90000   33.22725   16.17829
   25.95000   33.35559   16.18140
   26.00000   33.72422   16.19147
   26.05000   34.05434   16.21180
   26.10000   34.51991   16.24174
   26.15000   34.99052   16.28753
   26.20000   35.19606   16.36439
   26.25000   35.45029   16.45332
   26.30000   35.65568   16.55084
   26.35000   35.46833   16.65463
   26.40000   35.64112   16.76542
   26.45000   35.78595   16.90138
   26.50000   36.05054   17.02977
   26.55000   36.18756   17.16598
   26.60000   35.96279   17.31085
   26.65000   36.00482   17.45060
   26.70000   36.18070   17.58711
   26.75000   35.93353   17.72637
   26.80000   35.79745   17.89013
   26.85000   35.88394   18.05667
   26.90000   36.36491   18.22412
   26.95000   36.89284   18.39991
   27.00000   37.28698   18.57386
   27.05000   37.85772   18.71206
   27.10000   37.89902   18.85283
   27.15000   37.99849   18.98865
   27.20000   38.35866   19.10651
   27.25000   38.55008   19.20428
   27.30000   38.54061   19.28148
   27.35000   39.09674   19.33880
   27.40000   39.40039   19.35404
   27.45000   39.70890   19.35597
   27.50000   39.50591   19.35297
   27.55000   39.35076   19.34886
   27.60000   38.80744   19.34451
   27.65000   38.21116   19.33375
   27.70000   38.09723   19.31791
   27.75000   37.95997   19.29132
   27.80000   37.69727   19.23808
   27.85000   38.03696   19.11374
   27.90000   38.04127   18.91336
   27.95000   37.78367   18.68130
   28.00000   37.45383   18.43850
   28.05000   36.95739   18.19252
   28.10000   36.62026   17.96757
   28.15000   36.39236   17.80049
   28.20000   36.44731   17.69414
   28.25000   36.57737   17.61104
   28.30000   36.65919   17.53598
   28.35000   37.05600   17.47201
   28.40000   37.08589   17.42200
   28.45000   36.45710   17.39679
   28.50000   36.13116   17.38686
   28.55000   35.63423   17.39204
   28.60000   35.43695   17.41488
   28.65000   35.68486   17.45157
   28.70000   36.09278   17.49592
   28.75000   36.36703   17.54005
   28.80000   36.70674   17.60141
   28.85000   36.76635   17.68707
   28.90000   36.69321   17.82449
   28.95000   36.66655   17.98627
   29.00000   37.04524   18.15068
   29.05000   37.37109   18.31081
   29.10000   37.48663   18.44732
   29.15000   37.92252   18.54514
   29.20000   38.16705   18.57474
   29.25000   38.45105   18.57129
   29.30000   38.50014   18.55098
   29.35000   38.66025   18.51135
   29.40000   38.90302   18.44494
   29.45000   38.94126   18.36147
   29.50000   38.91862   18.27912
   29.55000   38.63835   18.20047
   29.60000   38.72393   18.13059
   29.65000   38.72309   18.06800
   29.70000   38.86158   18.01893
   29.75000   38.67292   17.99021
   29.80000   38.48327   17.96888
   29.85000   38.29272   17.96788
   29.90000   38.58527   17.98452
   29.95000   38.74097   18.02328
   30.00000   38.82078   18.08411
   30.05000   39.05455   18.16826
   30.10000   38.93866   18.28792
   30.15000   38.89747   18.43244
   30.20000   38.59864   18.59731
   30.25000   38.62552   18.78163
   30.30000   38.76271   18.98937
   30.35000   38.94095   19.20481
   30.40000   39.24840   19.41072
   30.45000   39.39053   19.60347
   30.50000   39.39097   19.80816
   30.55000   39.34732   20.02072
   30.60000   39.27198   20.20746
   30.65000   39.37959   20.37496
   30.70000   39.95363   20.53229
   30.75000   40.57452   20.67010
   30.80000   40.92101   20.77864
   30.85000   41.36104   20.85967
   30.90000   41.86456   20.94113
   30.95000   42.36464   21.01453
   31.00000   42.77737   21.08988
   31.05000   43.18126   21.16539
   31.10000   43.46377   21.23687
   31.15000   44.03297   21.31213
   31.20000   44.78265   21.37702
   31.25000   45.55057   21.44100
   31.30000   46.03847   21.50788
   31.35000   46.80005   21.57019
   31.40000   47.49956   21.61682
   31.45000   47.70348   21.64395
   31.50000   47.74462   21.65860
   31.55000   47.40586   21.64966
   31.60000   47.63872   21.60536
   31.65000   48.25735   21.54050
   31.70000   48.61573   21.44060
   31.75000   48.65262   21.31482
   31.80000   48.72586   21.16369
   31.85000   48.04490   20.99310
   31.90000   47.63150   20.82300
   31.95000   46.73172   20.62224
   32.00000   46.21220   20.40749
   32.05000   45.76564   20.17643
   32.10000   45.78740   19.90978
   32.15000   45.93669   19.63512
   32.20000   45.42340   19.35209
   32.25000   44.34579   19.07698
   32.30000   43.37368   18.80793
   32.35000   42.14227   18.55578
   32.40000   40.87264   18.34503
   32.45000   40.79441   18.13068
   32.50000   40.19501   17.90277
   32.55000   39.96963   17.70289
   32.60000   39.91112   17.53912
   32.65000   39.60649   17.40621
   32.70000   38.96359   17.27702
   32.75000   38.49929   17.17174
   32.80000   38.22950   17.10550
   32.85000   38.43178   17.06350
   32.90000   38.79201   17.03257
   32.95000   39.34565   17.03564
   33.00000   39.70966   17.06440
   33.05000   39.93193   17.10936
   33.10000   40.27666   17.15824
   33.15000   40.35477   17.21220
   33.20000   40.42924   17.25954
   33.25000   40.60508   17.28775
   33.30000   40.56541   17.32478
   33.35000   40.46416   17.36817
   33.40000   40.11480   17.41364
   33.45000   40.13446   17.45552
   33.50000   40.14154   17.49652
   33.55000   40.23639   17.53208
   33.60000   40.03062   17.55803
   33.65000   39.60307   17.57975
   33.70000   39.18640   17.59296
   33.75000   38.65231   17.60627
   33.80000   38.52905   17.62443
   33.85000   38.29403   17.64259
   33.90000   38.41520   17.65546
   33.95000   38.32190   17.66179
   34.00000   38.24416   17.67046
   34.05000   38.30060   17.67507
   34.10000   38.25471   17.67127
   34.15000   37.84319   17.67104
   34.20000   37.40677   17.68893
   34.25000   37.39615   17.71814
   34.30000   37.52639   17.74499
   34.35000   38.17802   17.76812
   34.40000   38.35906   17.79175
   34.45000   38.64667   17.80602
   34.50000   38.57719   17.80406
   34.55000   38.36404   17.79446
   34.60000   38.38143   17.78670
   34.65000   38.45239   17.78515
   34.70000   38.11693   17.79671
   34.75000   38.24322   17.82621
   34.80000   38.51372   17.86790
   34.85000   38.43047   17.92045
   34.90000   38.04889   18.00053
   34.95000   37.67865   18.14149
   35.00000   37.48572   18.29714
   35.05000   37.36001   18.45473
   35.10000   38.05467   18.63563
   35.15000   38.66030   18.84944
   35.20000   39.14966   19.05483
   35.25000   39.47888   19.21304
   35.30000   40.31243   19.37341
   35.35000   40.77406   19.53673
   35.40000   41.16139   19.66557
   35.45000   42.05294   19.75635
   35.50000   42.88458   19.82355
   35.55000   43.42464   19.86877
   35.60000   44.05865   19.88305
   35.65000   44.05405   19.87666
   35.70000   43.48742   19.86184
   35.75000   43.09276   19.82631
   35.80000   42.92569   19.76830
   35.85000   42.94161   19.69476
   35.90000   42.32615   19.59857
   35.95000   41.84906   19.46595
   36.00000   41.42690   19.31771
   36.05000   40.88049   19.14065
   36.10000   40.48793   18.95520
   36.15000   40.52920   18.77993
   36.20000   40.37508   18.61722
   36.25000   40.44264   18.47330
   36.30000   40.39657   18.32417
   36.35000   40.45354   18.19427
   36.40000   40.30400   18.07330
   36.45000   40.65986   17.96184
   36.50000   41.04132   17.86638
   36.55000   41.28921   17.78376
   36.60000   41.42894   17.72705
   36.65000   41.33718   17.70145
   36.70000   41.29303   17.71096
   36.75000   41.38411   17.69203
   36.80000   41.29121   17.65769
