#------------------------------------------------------------
~VERSION INFORMATION
VERS.               2.0  :CWLS LOG ASCII STANDARD - VERSION 2.0
WRAP.               YES  :MULTIPLE LINES PER DEPTH STEP
#------------------------------------------------------------
~WELL INFORMATION
STRT.M        0.4629000  :FIRST INDEX VALUE
STOP.M         166.9829  :LAST INDEX VALUE
STEP.M        0.0000000  :STEP
NULL.            -99999  :NULL VALUE
COMP.                    :COMPANY
WELL.                    :WELL
FLD.                     :FIELD
LOC.                     :LOCATION
SRVC.                    :
CTRY.                    :COUNTRY
STAT.                    :STATE
CNTY.                    :
DATE.                    :DATE
API.                     :
#------------------------------------------------------------
~CURVE INFORMATION
DEPT.M                   :DEPTH
SPEED.M/MIN              :Speed
TIME.SEC                 :Time
POSCOUNT.COUNT           :Poscount
NEGCOUNT.COUNT           :Negcount
POSDT.SEC                :Posdt
NEGDT.SEC                :Negdt
DEEP_INDUCTION.MS/M      :Deep Induction
MEDIUM_INDUCTION.MS/M    :Medium Induction
DEEP_RES.OHM-M           :Deep Res
MEDIUM_RES.OHM-M         :Medium Res
#------------------------------------------------------------
~PARAMETER INFORMATION
STE.                     :STE
TWP.                     :TWP
TYPE_FLUID_IN_HOLE.      :TYPE FLUID IN HOLE
CASING_FROM1.            :CASING FROM1
CASING_FROM2.            :CASING FROM2
CASING_FROM3.            :CASING FROM3
CASING_FROM4.            :CASING FROM4
BIT_TO3.                 :BIT TO3
CASING_FROM5.            :CASING FROM5
CASING_FROM6.            :CASING FROM6
BIT4.                    :BIT4
PERMANENT_DATUM.         :PERMANENT DATUM
BIT_TO2.                 :BIT TO2
K_B_.                    :K.B.
BIT5.                    :BIT5
BIT_TO1.                 :BIT TO1
TYPE_LOG.                :TYPE LOG
WELL_ID.                 :WELL ID
RUN1.                    :RUN1
RGE.                     :RGE
CO.                      :CO
ELEVATION.               :ELEVATION
TOP_LOGGED_INTERVAL.     :TOP LOGGED INTERVAL
RUN2.                    :RUN2
BTM_LOGGED_INTERVAL.     :BTM LOGGED INTERVAL
RUN3.                    :RUN3
BIT_TO6.                 :BIT TO6
WGT3.                    :WGT3
LOG_MEAS__FROM.          :LOG MEAS. FROM
RUN4.                    :RUN4
BIT_TO5.                 :BIT TO5
WGT2.                    :WGT2
D_F_.                    :D.F.
BIT_FROM2.               :BIT FROM2
RUN5.                    :RUN5
BIT_TO4.                 :BIT TO4
WGT1.                    :WGT1
BIT_FROM3.               :BIT FROM3
DEPTH-LOGGER.            :DEPTH-LOGGER
RUN6.                    :RUN6
RECORDED_BY.             :RECORDED BY
CTY.                     :CTY
MAX__REC__TEMP_.         :MAX. REC. TEMP.
BIT_FROM1.               :BIT FROM1
SEC.                     :SEC
CASING_TO1.              :CASING TO1
CASING_TO2.              :CASING TO2
CASING_TO3.              :CASING TO3
SALINITY.                :SALINITY
CASING_TO4.              :CASING TO4
CASING_TO5.              :CASING TO5
CASING_TO6.              :CASING TO6
WGT6.                    :WGT6
G_L_.                    :G.L.
BIT_FROM6.               :BIT FROM6
LEVEL.                   :LEVEL
WGT5.                    :WGT5
BIT2.                    :BIT2
DEPTH-DRILLER.           :DEPTH-DRILLER
DENSITY.                 :DENSITY
WITNESSED_BY.            :WITNESSED BY
WGT4.                    :WGT4
RUN_No.                  :RUN No
BIT3.                    :BIT3
BIT_FROM4.               :BIT FROM4
CASING_SIZE1.            :CASING SIZE1
CASING_SIZE2.            :CASING SIZE2
CASING_SIZE3.            :CASING SIZE3
CASING_SIZE4.            :CASING SIZE4
CASING_SIZE5.            :CASING SIZE5
CASING_SIZE6.            :CASING SIZE6
OTHER_SERVICES.          :OTHER SERVICES
BIT_FROM5.               :BIT FROM5
OPERATING_RIG_TIME.      :OPERATING RIG TIME
TITLE.                   :TITLE
BIT1.                    :BIT1
FILING_No.               :FILING No
DRILLING_MEAS__FROM.     :DRILLING MEAS. FROM
BIT6.                    :BIT6
#------------------------------------------------------------
~OTHER
#------------------------------------------------------------
~A
# ...
   67.10290
     5.050000    0.1000000     28.50191     31.50191   0.09662233
   0.09565645     12.20298     4.718856     81.94726     211.9158
   67.11290
     5.050000    0.1249047     35.47140     39.46758    0.1210958
    0.1206142     12.21552     4.695599     81.86312     212.9654
   67.12290
     5.050000    0.1250763     35.52290     40.02443    0.1212767
    0.1221838     12.25599     4.700659     81.59341     212.7361
   67.13290
     5.050000    0.1249047     35.47140     39.96949    0.1211182
    0.1220070     12.29750     4.717238     81.31735     211.9885
   67.14290
     5.050000    0.1250954     36.02670     40.03051    0.1230651
    0.1223132     12.29341     4.701192     81.34447     212.7120
   67.15290
     5.050000    0.1000000     28.50191     32.00000   0.09661170
   0.09715866     12.30924     4.694800     81.24017     213.0016
   67.16290
     5.050000    0.1248855     35.46565     39.96336    0.1210631
    0.1221147     12.33613     4.696517     81.06266     212.9238
   67.17290
     5.050000    0.1250954     35.52860     40.03051    0.1212468
    0.1223075     12.33313     4.686279     81.08244     213.3889
   67.18290
     5.012643    0.1000000     28.49809     32.00000   0.09651521
   0.09715746     12.33167     4.686013     81.09200     213.4010
   67.19290
     4.975000    0.1249237     35.48015     39.47710    0.1210390
    0.1205914     12.32419     4.679949     81.14125     213.6776
   67.20290
     4.975000    0.1250954     35.52479     39.52860    0.1212033
    0.1207633     12.26814     4.678293     81.51317     213.7532
   67.21290
     4.975000    0.1249047     35.97330     39.96949    0.1227563
    0.1221607     12.17869     4.681221     82.11161     213.6195
   67.22290
     4.975000    0.1250954     35.52860     40.03051    0.1211817
    0.1223344     12.14417     4.693202     82.34409     213.0741
   67.23289
     4.975000    0.1000000     28.49771     32.00000   0.09650256
   0.09710771     12.17457     4.686811     82.13869     213.3647
   67.24290
     4.975000    0.1249047     35.47521     39.96949    0.1209968
    0.1220107     12.21635     4.701992     81.85773     212.6758
   67.25290
     4.975000    0.1250954     35.52479     40.03051    0.1211726
    0.1221931     12.21656     4.695930     81.85632     212.9503
   67.26290
     4.962539    0.1000000     28.50153     32.00000   0.09653035
   0.09702817     12.20638     4.684415     81.92441     213.4738
   67.27290
     4.950000    0.1249047     35.47140     39.96949    0.1209915
    0.1219383     12.24762     4.692403     81.64906     213.1104
   67.28290
     4.950000    0.1250954     36.02670     40.03051    0.1229244
    0.1220912     12.29656     4.675202     81.32375     213.8945
   67.29290
     4.950000    0.1249047     35.47521     39.96949    0.1209730
    0.1218789     12.30922     4.693202     81.23996     213.0741
   67.30290
     4.950000    0.1250763     35.51985     40.02443    0.1211265
    0.1220689     12.30382     4.662858     81.27557     214.4607
   67.31290
     4.950000    0.1249047     35.97330     39.96949    0.1227076
    0.1218896     12.28638     4.650977     81.39111     215.0086
   67.32290
     4.950000    0.1250954     35.52860     40.03051    0.1211292
    0.1221053     12.26124     4.661262     81.55785     214.5342
   67.33290
     4.950000    0.1000000     28.49847     32.00000   0.09644715
   0.09701191     12.23262     4.662326     81.74886     214.4852
   67.34290
     4.950000    0.1249047     35.47521     39.96949    0.1209218
    0.1219308     12.23575     4.667529     81.72806     214.2461
   67.35290
     4.950000    0.1250954     35.52479     40.03051    0.1211044
    0.1221236     12.25949     4.681487     81.56947     213.6073
   67.36290
     4.950000    0.1249047     35.97330     39.96949    0.1226565
    0.1219215     12.25300     4.654080     81.61272     214.8652
   67.37290
     4.950000    0.1250763     35.52290     39.52596    0.1210497
    0.1205093     12.23130     4.650977     81.75760     215.0086
   67.38290
     4.950000    0.1249047     35.47140     39.46758    0.1208697
    0.1202962     12.24980     4.662858     81.63462     214.4607
   67.39290
     4.950000    0.1250954     36.02670     40.03051    0.1228317
    0.1220691     12.30173     4.670043     81.28954     214.1308
   67.40290
     4.950000    0.1000000     28.50191     32.00000   0.09643549
   0.09683431     12.32638     4.677464     81.12682     213.7910
   67.41290
     4.950000    0.1248855     35.46565     39.96336    0.1208470
    0.1216570     12.32896     4.669244     81.10983     214.1674
   67.42290
     4.950000    0.1250954     35.52860     40.03051    0.1210753
    0.1221135     12.27568     4.673325     81.46322     213.9804
   67.43290
     4.950000    0.1249047     35.47140     39.96949    0.1208211
    0.1219695     12.21261     4.677228     81.88265     213.8018
   67.44290
     4.950000    0.1250763     36.02137     40.02443    0.1227068
    0.1219771     12.19751     4.672970     81.98395     213.9967
   67.45290
     4.950000    0.1000000     28.50191     32.00000   0.09637035
   0.09703493     12.22008     4.679949     81.83286     213.6776
   67.46290
     4.950000    0.1249047     35.47140     39.96949    0.1208247
    0.1222342     12.24488     4.677760     81.66677     213.7775
   67.47290
     4.950000    0.1250954     36.02670     40.03051    0.1227898
    0.1223853     12.27652     4.646900     81.45683     215.1973
   67.48289
     4.950000    0.1248855     35.47023     39.96336    0.1208643
    0.1221213     12.27972     4.659252     81.43554     214.6267
   67.49290
     4.950000    0.1250954     35.52479     40.03051    0.1210364
    0.1222405     12.25812     4.652218     81.57862     214.9512
   67.50290
     4.950000    0.1249047     35.97330     39.96949    0.1225335
    0.1217027     12.27816     4.666849     81.44555     214.2773
   67.51290
     4.950000    0.1250763     35.52290     40.02443    0.1209352
    0.1217650     12.26963     4.662326     81.50233     214.4852
   67.52290
     4.950000    0.1000000     28.49809     32.00000   0.09634081
   0.09675119     12.24108     4.650977     81.69217     215.0086
   67.53290
     4.950000    0.1249047     35.97330     39.96949    0.1225315
    0.1214648     12.24932     4.666051     81.63728     214.3140
   67.54290
     4.950000    0.1250954     35.52860     40.03051    0.1209783
    0.1217044     12.26869     4.654346     81.50834     214.8530
   67.55290
     4.950000    0.1249237     35.47710     39.97557    0.1207992
    0.1217999     12.29455     4.664218     81.33708     214.3982
   67.56290
     4.950000    0.1250954     36.02670     40.03051    0.1227104
    0.1219872     12.27145     4.662326     81.49105     214.4852
   67.57290
     4.950000    0.1249047     35.47521     39.96949    0.1207489
    0.1218109     12.29877     4.670841     81.31182     214.0942
   67.58290
     4.950000    0.1250763     35.51985     40.02443    0.1208970
    0.1219944     12.42953     4.660730     80.45531     214.5587
   67.59290
     4.987357    0.1000000     28.50191     32.00000   0.09630799
   0.09693060     12.51648     4.661262     79.89508     214.5342
   67.60290
     5.025000    0.1249047     35.47140     39.96949    0.1206818
    0.1218764     12.43511     4.663390     80.42391     214.4363
   67.61290
     5.025000    0.1250954     36.02670     40.03051    0.1226222
    0.1220599     12.32723     4.649559     81.12125     215.0742
   67.62290
     5.025000    0.1249237     35.97863     39.97557    0.1224602
    0.1218593     12.32098     4.646102     81.16245     215.2342
   67.63290
     5.025000    0.1250954     35.52860     40.03051    0.1208976
    0.1220372     12.25517     4.655034     81.59992     214.8212
   67.64290
     5.025000    0.1249047     35.47140     39.96949    0.1207385
    0.1218471     12.19808     4.658868     81.98013     214.6444
   67.65290
     5.025000    0.1250954     36.02670     40.03051    0.1226942
    0.1220285     12.17147     4.662060     82.15972     214.4975
