#------------------------------------------------------------
~VERSION INFORMATION
VERS.               2.0  :CWLS LOG ASCII STANDARD - VERSION 2.0
WRAP.               YES  :MULTIPLE LINES PER DEPTH STEP
#------------------------------------------------------------
~WELL INFORMATION
STRT.M        0.4629000  :FIRST INDEX VALUE
STOP.M         166.9829  :LAST INDEX VALUE
STEP.M        0.0000000  :STEP
NULL.            -99999  :NULL VALUE
COMP.                    :COMPANY
WELL.                    :WELL
FLD.                     :FIELD
LOC.                     :LOCATION
SRVC.                    :
CTRY.                    :COUNTRY
STAT.                    :STATE
CNTY.                    :
DATE.                    :DATE
API.                     :
#------------------------------------------------------------
~CURVE INFORMATION
DEPT.M                   :DEPTH
SPEED.M/MIN              :Speed
TIME.SEC                 :Time
POSCOUNT.COUNT           :Poscount
NEGCOUNT.COUNT           :Negcount
POSDT.SEC                :Posdt
NEGDT.SEC                :Negdt
DEEP_INDUCTION.MS/M      :Deep Induction
MEDIUM_INDUCTION.MS/M    :Medium Induction
DEEP_RES.OHM-M           :Deep Res
MEDIUM_RES.OHM-M         :Medium Res
#------------------------------------------------------------
~PARAMETER INFORMATION
STE.                     :STE
TWP.                     :TWP
TYPE_FLUID_IN_HOLE.      :TYPE FLUID IN HOLE
CASING_FROM1.            :CASING FROM1
CASING_FROM2.            :CASING FROM2
CASING_FROM3.            :CASING FROM3
CASING_FROM4.            :CASING FROM4
BIT_TO3.                 :BIT TO3
CASING_FROM5.            :CASING FROM5
CASING_FROM6.            :CASING FROM6
BIT4.                    :BIT4
PERMANENT_DATUM.         :PERMANENT DATUM
BIT_TO2.                 :BIT TO2
K_B_.                    :K.B.
BIT5.                    :BIT5
BIT_TO1.                 :BIT TO1
TYPE_LOG.                :TYPE LOG
WELL_ID.                 :WELL ID
RUN1.                    :RUN1
RGE.                     :RGE
CO.                      :CO
ELEVATION.               :ELEVATION
TOP_LOGGED_INTERVAL.     :TOP LOGGED INTERVAL
RUN2.                    :RUN2
BTM_LOGGED_INTERVAL.     :BTM LOGGED INTERVAL
RUN3.                    :RUN3
BIT_TO6.                 :BIT TO6
WGT3.                    :WGT3
LOG_MEAS__FROM.          :LOG MEAS. FROM
RUN4.                    :RUN4
BIT_TO5.                 :BIT TO5
WGT2.                    :WGT2
D_F_.                    :D.F.
BIT_FROM2.               :BIT FROM2
RUN5.                    :RUN5
BIT_TO4.                 :BIT TO4
WGT1.                    :WGT1
BIT_FROM3.               :BIT FROM3
DEPTH-LOGGER.            :DEPTH-LOGGER
RUN6.                    :RUN6
RECORDED_BY.             :RECORDED BY
CTY.                     :CTY
MAX__REC__TEMP_.         :MAX. REC. TEMP.
BIT_FROM1.               :BIT FROM1
SEC.                     :SEC
CASING_TO1.              :CASING TO1
CASING_TO2.              :CASING TO2
CASING_TO3.              :CASING TO3
SALINITY.                :SALINITY
CASING_TO4.              :CASING TO4
CASING_TO5.              :CASING TO5
CASING_TO6.              :CASING TO6
WGT6.                    :WGT6
G_L_.                    :G.L.
BIT_FROM6.               :BIT FROM6
LEVEL.                   :LEVEL
WGT5.                    :WGT5
BIT2.                    :BIT2
DEPTH-DRILLER.           :DEPTH-DRILLER
DENSITY.                 :DENSITY
WITNESSED_BY.            :WITNESSED BY
WGT4.                    :WGT4
RUN_No.                  :RUN No
BIT3.                    :BIT3
BIT_FROM4.               :BIT FROM4
CASING_SIZE1.            :CASING SIZE1
CASING_SIZE2.            :CASING SIZE2
CASING_SIZE3.            :CASING SIZE3
CASING_SIZE4.            :CASING SIZE4
CASING_SIZE5.            :CASING SIZE5
CASING_SIZE6.            :CASING SIZE6
OTHER_SERVICES.          :OTHER SERVICES
BIT_FROM5.               :BIT FROM5
OPERATING_RIG_TIME.      :OPERATING RIG TIME
TITLE.                   :TITLE
BIT1.                    :BIT1
FILING_No.               :FILING No
DRILLING_MEAS__FROM.     :DRILLING MEAS. FROM
BIT6.                    :BIT6
#------------------------------------------------------------
~OTHER
#------------------------------------------------------------
~A
# ...
   111.3429
     5.150000    0.1251145     35.03206     39.03664    0.1204266
    0.1205480     10.37089     4.020309     96.42486     248.7371
   111.3529
     5.150000    0.1000000     28.49809     31.49809   0.09729951
   0.09668203     10.41353     4.019499     96.02895     248.7872
   111.3629
     5.150000    0.1249047     35.47521     39.47140    0.1219599
    0.1219457     10.44174     3.997200     95.76983     250.1751
   111.3729
     5.150000    0.1251145     35.03206     39.53435    0.1203790
    0.1221469     10.38381     3.995619     96.30937     250.2741
   111.3829
     5.162453    0.1000000     28.00000     31.50191   0.09552369
   0.09670980     10.29588     4.000046     97.12632     249.9971
   111.3929
     5.175000    0.1249047     35.47140     39.46758    0.1219626
    0.1219323     10.25609     3.993999     97.50392     250.3756
   111.4029
     5.175000    0.1250763     35.52290     39.52596    0.1221335
    0.1221172     10.25472     4.007339     97.51692     249.5421
   111.4129
     5.175000    0.1000000     28.00000     31.49809   0.09551251
   0.09668213     10.26437     3.986275     97.42474     250.8608
   111.4229
     5.175000    0.1249047     35.47140     39.47140    0.1219662
    0.1219674     10.25850     3.977999     97.48031     251.3827
   111.4329
     5.175000    0.1250763     35.52290     39.52290    0.1221586
    0.1221383     10.27680     3.970081     97.30653     251.8840
   111.4429
     5.175000    0.1000000     28.00000     31.50229   0.09553374
   0.09670160     10.25208     3.958143     97.54193     252.6437
   111.4529
     5.175000    0.1248855     35.46565     39.46107    0.1219653
    0.1219434     10.23733     3.960408     97.68195     252.4993
   111.4629
     5.175000    0.1250763     35.52290     39.52596    0.1221717
    0.1221554     10.26039     3.958750     97.46224     252.6050
   111.4729
     5.162538    0.1000000     28.00000     31.49848   0.09554936
   0.09670018     10.22530     3.950659     97.79849     253.1223
   111.4829
     5.150000    0.1248855     35.46565     39.46565    0.1219853
    0.1219318     10.25487     3.953202     97.51988     252.9595
   111.4929
     5.150000    0.1250954     35.52860     39.03051    0.1221969
    0.1205510     10.35619     3.940953     96.56126     253.7457
   111.5029
     5.150000    0.1000000     28.00000     31.49809   0.09553872
   0.09669456     10.38182     3.940953     96.32223     253.7457
   111.5129
     5.150000    0.1249237     34.97863     39.47710    0.1202431
    0.1219637     10.38829     3.952948     96.26230     252.9758
   111.5229
     5.150000    0.1250954     35.52479     39.52860    0.1221746
    0.1221044     10.39888     3.956583     96.16423     252.7434
   111.5329
     5.150000    0.1000000     28.50191     31.50191   0.09733108
   0.09663678     10.40441     3.936909     96.11305     254.0063
   111.5429
     5.150000    0.1249237     34.97863     39.47404    0.1202693
    0.1218416     10.30405     3.937501     97.05886     253.9682
   111.5529
     5.150000    0.1250954     35.52479     39.53242    0.1221947
    0.1220450     10.20932     3.944188     97.94978     253.5376
   111.5629
     5.187357    0.1000000     28.50191     31.49809   0.09733360
   0.09664204     10.22900     3.915258     97.76142     255.4110
   111.5729
     5.225000    0.1249237     34.97863     39.47710    0.1202513
    0.1219480     10.24077     3.914079     97.64890     255.4879
   111.5829
     5.225000    0.1250762     35.51982     39.52287    0.1221558
    0.1220850     10.25909     3.911045     97.47478     255.6862
   111.5929
     5.225000    0.1000000     28.50229     31.50229   0.09731625
   0.09660869     10.25159     3.916701     97.54641     255.3169
   111.6029
     5.225000    0.1249047     34.97330     39.46758    0.1202410
    0.1219548     10.36555     3.914219     96.49104     255.4788
   111.6129
     5.225000    0.1250954     35.02670     39.53242    0.1204757
    0.1222909     10.53138     3.896505     94.95483     256.6403
   111.6229
     5.225000    0.1000000     28.49771     31.49771   0.09737010
   0.09681772     10.35844     3.934484     96.57526     254.1629
   111.6329
     5.225000    0.1249047     35.47521     39.47140    0.1220410
    0.1221217     10.17702     3.942294     98.26096     253.6594
   111.6429
     5.212547    0.1250954     35.02670     39.03051    0.1204383
    0.1207150     10.13200     3.969069     98.70119     251.9483
   111.6529
     5.200000    0.1000000     28.49847     31.49847   0.09730528
   0.09680204     10.03195     3.941762     99.68275     253.6937
   111.6629
     5.200000    0.1000000     28.50191     31.50191   0.09729239
   0.09680979     10.02461     3.913468     99.75530     255.5278
   111.6729
     5.200000    0.1249047     34.97330     39.46758    0.1201737
    0.1221811     10.22299     3.898120     97.84583     256.5339
   111.6829
     5.200000    0.1250763     35.02137     39.52596    0.1203406
    0.1223870     10.36213     3.907467     96.50617     255.9203
   111.6929
     5.200000    0.1000000     28.49771     31.49771   0.09726503
   0.09676060     10.05216     3.907695     99.55812     255.9053
   111.7029
     5.200000    0.1248855     35.47023     39.46565    0.1219403
    0.1219063     9.902675     3.907005     101.0009     255.9505
   111.7129
     5.200000    0.1250763     35.02137     39.52290    0.1203569
    0.1220800     10.08642     3.891660     99.14576     256.9597
   111.7229
     5.200000    0.1000000     28.49848     31.50152   0.09728894
   0.09667361     10.26855     3.879436     97.40072     257.7695
   111.7329
     5.200000    0.1248855     35.47023     38.96336    0.1219715
    0.1203077     10.41283     3.876323     96.03552     257.9765
   111.7429
     5.200000    0.1250954     35.02670     39.52860    0.1204138
    0.1221199     10.27244     3.886816     97.36960     257.2800
   111.7529
     5.200000    0.1000000     28.49809     32.00000   0.09732574
   0.09834229     10.11376     3.885359     98.87518     257.3765
   111.7629
     5.200000    0.1000000     28.50153     31.50153   0.09734352
   0.09681609     10.16936     3.861799     98.33802     258.9467
   111.7729
     5.200000    0.1249047     34.97330     38.96949    0.1202511
    0.1205126     10.19215     3.877879     98.11612     257.8729
   111.7829
     5.200000    0.1250954     35.02670     39.52860    0.1204370
    0.1221762     10.11203     3.902375     98.89379     256.2542
   111.7929
     5.200000    0.1000000     28.49847     31.50153   0.09735826
   0.09671012     10.09273     3.886009     99.08177     257.3335
   111.8029
     5.200000    0.1249047     35.47521     39.46758    0.1220667
    0.1221333     10.13162     3.877937     98.70113     257.8691
   111.8129
     5.200000    0.1250954     35.02670     39.53242    0.1204477
    0.1223635     10.12888     3.863355     98.72796     258.8424
   111.8229
     5.162614    0.1000000     28.49847     31.49847   0.09731026
   0.09678415     10.09142     3.849702     99.09440     259.7604
   111.8329
     5.125000    0.1249238     35.48018     39.47713    0.1219993
    0.1219676     10.07077     3.832773     99.29727     260.9077
   111.8429
     5.125000    0.1251145     35.03206     39.03664    0.1204228
    0.1206065     10.10231     3.840204     98.98840     260.4028
   111.8529
     5.125000    0.1000000     28.49809     31.49809   0.09731574
   0.09679077     10.10775     3.843252     98.93472     260.1964
   111.8629
     5.125000    0.1000000     28.50191     31.50191   0.09733050
   0.09682167     10.07629     3.833550     99.24284     260.8548
   111.8729
     5.125000    0.1248855     34.96794     39.46107    0.1202115
    0.1220460     10.08599     3.836803     99.14755     260.6337
   111.8829
     5.125000    0.1250954     35.02670     39.53242    0.1204189
    0.1222173     10.10900     3.841266     98.92187     260.3308
   111.8929
     5.125000    0.1000000     28.49809     31.49809   0.09732197
   0.09669586     10.12362     3.850508     98.77887     259.7060
