#------------------------------------------------------------
~VERSION INFORMATION
VERS.               2.0  :CWLS LOG ASCII STANDARD - VERSION 2.0
WRAP.               YES  :MULTIPLE LINES PER DEPTH STEP
#------------------------------------------------------------
~WELL INFORMATION
STRT.M        0.4629000  :FIRST INDEX VALUE
STOP.M         166.9829  :LAST INDEX VALUE
STEP.M        0.0000000  :STEP
NULL.            -99999  :NULL VALUE
COMP.                    :COMPANY
WELL.                    :WELL
FLD.                     :FIELD
LOC.                     :LOCATION
SRVC.                    :
CTRY.                    :COUNTRY
STAT.                    :STATE
CNTY.                    :
DATE.                    :DATE
API.                     :
#------------------------------------------------------------
~CURVE INFORMATION
DEPT.M                   :DEPTH
SPEED.M/MIN              :Speed
TIME.SEC                 :Time
POSCOUNT.COUNT           :Poscount
NEGCOUNT.COUNT           :Negcount
POSDT.SEC                :Posdt
NEGDT.SEC                :Negdt
DEEP_INDUCTION.MS/M      :Deep Induction
MEDIUM_INDUCTION.MS/M    :Medium Induction
DEEP_RES.OHM-M           :Deep Res
MEDIUM_RES.OHM-M         :Medium Res
#------------------------------------------------------------
~PARAMETER INFORMATION
STE.                     :STE
TWP.                     :TWP
TYPE_FLUID_IN_HOLE.      :TYPE FLUID IN HOLE
CASING_FROM1.            :CASING FROM1
CASING_FROM2.            :CASING FROM2
CASING_FROM3.            :CASING FROM3
CASING_FROM4.            :CASING FROM4
BIT_TO3.                 :BIT TO3
CASING_FROM5.            :CASING FROM5
CASING_FROM6.            :CASING FROM6
BIT4.                    :BIT4
PERMANENT_DATUM.         :PERMANENT DATUM
BIT_TO2.                 :BIT TO2
K_B_.                    :K.B.
BIT5.                    :BIT5
BIT_TO1.                 :BIT TO1
TYPE_LOG.                :TYPE LOG
WELL_ID.                 :WELL ID
RUN1.                    :RUN1
RGE.                     :RGE
CO.                      :CO
ELEVATION.               :ELEVATION
TOP_LOGGED_INTERVAL.     :TOP LOGGED INTERVAL
RUN2.                    :RUN2
BTM_LOGGED_INTERVAL.     :BTM LOGGED INTERVAL
RUN3.                    :RUN3
BIT_TO6.                 :BIT TO6
WGT3.                    :WGT3
LOG_MEAS__FROM.          :LOG MEAS. FROM
RUN4.                    :RUN4
BIT_TO5.                 :BIT TO5
WGT2.                    :WGT2
D_F_.                    :D.F.
BIT_FROM2.               :BIT FROM2
RUN5.                    :RUN5
BIT_TO4.                 :BIT TO4
WGT1.                    :WGT1
BIT_FROM3.               :BIT FROM3
DEPTH-LOGGER.            :DEPTH-LOGGER
RUN6.                    :RUN6
RECORDED_BY.             :RECORDED BY
CTY.                     :CTY
MAX__REC__TEMP_.         :MAX. REC. TEMP.
BIT_FROM1.               :BIT FROM1
SEC.                     :SEC
CASING_TO1.              :CASING TO1
CASING_TO2.              :CASING TO2
CASING_TO3.              :CASING TO3
SALINITY.                :SALINITY
CASING_TO4.              :CASING TO4
CASING_TO5.              :CASING TO5
CASING_TO6.              :CASING TO6
WGT6.                    :WGT6
G_L_.                    :G.L.
BIT_FROM6.               :BIT FROM6
LEVEL.                   :LEVEL
WGT5.                    :WGT5
BIT2.                    :BIT2
DEPTH-DRILLER.           :DEPTH-DRILLER
DENSITY.                 :DENSITY
WITNESSED_BY.            :WITNESSED BY
WGT4.                    :WGT4
RUN_No.                  :RUN No
BIT3.                    :BIT3
BIT_FROM4.               :BIT FROM4
CASING_SIZE1.            :CASING SIZE1
CASING_SIZE2.            :CASING SIZE2
CASING_SIZE3.            :CASING SIZE3
CASING_SIZE4.            :CASING SIZE4
CASING_SIZE5.            :CASING SIZE5
CASING_SIZE6.            :CASING SIZE6
OTHER_SERVICES.          :OTHER SERVICES
BIT_FROM5.               :BIT FROM5
OPERATING_RIG_TIME.      :OPERATING RIG TIME
TITLE.                   :TITLE
BIT1.                    :BIT1
FILING_No.               :FILING No
DRILLING_MEAS__FROM.     :DRILLING MEAS. FROM
BIT6.                    :BIT6
#------------------------------------------------------------
~OTHER
#------------------------------------------------------------
~A
# ...
   22.86290
     4.950000    0.1000000     28.00000     31.00000   0.09766189
   0.09732102     9.631282     4.069402     103.8292     245.7364
   22.87290
     4.950000    0.1249141     34.47767     38.47424    0.1210556
    0.1213536     9.616560     4.092497     103.9875     244.3496
   22.88290
     4.950000    0.1250953     34.52477     38.52858    0.1211921
    0.1213630     9.651129     4.124444     103.6153     242.4569
   22.89290
     4.950000    0.1248855     34.47023     38.96336    0.1209836
    0.1228158     9.701737     4.156969     103.0753     240.5599
   22.90290
     4.950000    0.1250859     34.52233     39.02748    0.1211645
    0.1230208     9.620941     4.169012     103.9537     239.8650
   22.91290
     4.950000    0.1249047     34.47523     38.47142    0.1209574
    0.1212275     9.527835     4.187611     104.9560     238.7997
   22.92290
     4.950000    0.1251050     34.52729     38.53149    0.1211342
    0.1213977     9.612594     4.212251     104.0352     237.4028
   22.93290
     4.950000    0.1000000     28.00000     31.00000   0.09753506
   0.09696133     9.574849     4.212251     104.4529     237.4028
   22.94290
     4.950000    0.1249143     34.47771     38.47428    0.1209001
    0.1210962     9.348769     4.222217     106.9839     236.8424
   22.95290
     4.950000    0.1250954     34.52481     38.52863    0.1210596
    0.1212638     9.127787     4.248168     109.5687     235.3956
   22.96290
     4.950000    0.1249332     34.48264     38.97863    0.1208699
    0.1226548     9.015202     4.288917     110.9240     233.1591
   22.97290
     4.950000    0.1250762     34.51982     39.02439    0.1209765
    0.1227675     8.950545     4.328315     111.7289     231.0368
   22.98290
     4.950000    0.1249046     34.97328     38.47137    0.1225862
    0.1209688     8.887871     4.344390     112.5130     230.1819
   22.99290
     4.950000    0.1251048     35.02934     38.53144    0.1227752
    0.1212443     8.879470     4.379426     112.6193     228.3404
   23.00290
     4.950000    0.1000000     27.50229     31.00000   0.09558902
   0.09692727     9.023729     4.399785     110.8469     227.2838
   23.01290
     4.950000    0.1249141     34.47424     38.97252    0.1206348
    0.1224224     9.195319     4.396184     108.7520     227.4700
   23.02290
     4.950000    0.1250953     35.02668     39.03049    0.1225842
    0.1225138     9.262051     4.380005     107.9694     228.3102
   23.03290
     4.950000    0.1248950     34.47271     38.46851    0.1205674
    0.1207067     9.441809     4.341419     105.9355     230.3394
   23.04290
     4.950000    0.1250763     34.51985     38.52290    0.1206903
    0.1208738     9.569698     4.275250     104.4967     233.9045
   23.05290
     4.950000    0.1249143     34.97599     38.97256    0.1222468
    0.1222549     9.599266     4.173930     104.1768     239.5823
   23.06290
     4.950000    0.1251050     35.02939     39.03359    0.1224145
    0.1225183     9.638966     4.060223     103.7456     246.2919
   23.07290
     4.950000    0.1000000     27.50153     31.00000   0.09531430
   0.09671704     9.653078     3.931625     103.5943     254.3477
   23.08290
     4.950000    0.1249143     34.47428     38.47428    0.1203096
    0.1207048     9.674746     3.857727     103.3619     259.2200
   23.09290
     4.950000    0.1250954     35.02672     39.02672    0.1222299
    0.1224386     9.659709     3.852121     103.5232     259.5973
   23.10290
     4.950000    0.1248952     34.97066     38.97066    0.1219373
    0.1222100     9.699965     3.917509     103.0970     255.2643
   23.11290
     4.974885    0.1251145     35.03206     38.53435    0.1221126
    0.1207495     9.651039     4.028708     103.6290     248.2185
   23.12290
     5.000000    0.1249141     34.47767     38.97252    0.1200619
    0.1219957     9.525141     4.175196     104.9856     239.5105
   23.13290
     5.000000    0.1250953     34.52477     39.03049    0.1201783
    0.1221752     9.582788     4.308208     104.3601     232.1150
   23.14290
     5.000000    0.1000000     28.00000     31.00000   0.09671333
   0.09638157     9.675549     4.430666     103.3537     225.6997
   23.15290
     5.000000    0.1249141     34.97595     38.97252    0.1216028
    0.1219329     9.676143     4.480757     103.3473     223.1767
   23.16290
     5.000000    0.1250953     35.02668     39.03049    0.1217374
    0.1221149     9.647450     4.522171     103.6545     221.1327
   23.17290
     5.000000    0.1248950     34.97061     38.96641    0.1214619
    0.1217135     9.611382     4.536476     104.0440     220.4354
   23.18290
     5.000000    0.1250763     35.02137     39.02443    0.1216164
    0.1218861     9.617222     4.546076     103.9812     219.9699
   23.19290
     5.000000    0.1000000     28.00000     31.00000   0.09648325
   0.09628248     9.640925     4.549728     103.7245     219.7934
   23.20290
     5.000000    0.1249046     34.97328     38.96947    0.1213315
    0.1218309     9.503597     4.516874     105.2433     221.3920
   23.21290
     5.000000    0.1250668     35.01870     39.02137    0.1214344
    0.1218508     9.491146     4.546900     105.3781     219.9301
   23.22290
     5.000000    0.1249238     34.97866     38.97561    0.1211697
    0.1214696     9.704729     4.549198     103.0521     219.8190
   23.23290
     5.000000    0.1250954     35.02672     39.03053    0.1213003
    0.1216942     9.669358     4.557600     103.4382     219.4137
   23.24290
     5.000000    0.1000000     28.00000     31.49790   0.09624252
   0.09775363     9.513935     4.548137     105.1097     219.8702
   23.25290
     5.000000    0.1248855     34.96794     38.96794    0.1210203
    0.1216453     9.483051     4.518463     105.4513     221.3142
   23.26290
     5.000000    0.1250859     35.52233     39.02405    0.1229327
    0.1217301     9.461595     4.515587     105.6907     221.4552
   23.27290
     5.012453    0.1249047     35.47523     39.47142    0.1227119
    0.1231685     9.459357     4.518463     105.7156     221.3142
   23.28290
     5.025000    0.1251050     35.02939     39.03359    0.1211140
    0.1217576     9.442199     4.524643     105.9087     221.0119
   23.29290
     5.025000    0.1000000     28.00000     31.00000   0.09607443
   0.09602062     9.447481     4.525350     105.8499     220.9774
   23.30290
     5.025000    0.1249143     34.97599     38.97256    0.1208310
    0.1214519     9.499355     4.476062     105.2706     223.4107
   23.31290
     5.025000    0.1251050     35.02939     39.03359    0.1209721
    0.1215650     9.555511     4.438062     104.6536     225.3236
   23.32290
     5.025000    0.1249237     34.97863     38.97557    0.1207366
    0.1213407     9.601254     4.428290     104.1531     225.8208
   23.33290
     5.025000    0.1250858     35.52229     39.02744    0.1226455
    0.1215139     9.546096     4.402101     104.7590     227.1643
   23.34290
     5.025000    0.1000000     28.50191     31.49809   0.09767000
   0.09745830     9.487332     4.354705     105.4037     229.6367
   23.35290
     5.025000    0.1248952     34.97066     39.46856    0.1205946
    0.1229102     9.463752     4.305395     105.6671     232.2668
   23.36290
     5.025000    0.1251145     35.03206     39.03664    0.1207752
    0.1215283     9.433029     4.269431     106.0105     234.2232
   23.37290
     5.025000    0.1249141     35.47424     38.97252    0.1222612
    0.1213839     9.482380     4.295424     105.4623     232.8059
   23.38290
     5.025000    0.1250953     35.52858     39.03049    0.1224052
    0.1215278     9.496608     4.294739     105.3027     232.8430
   23.39290
     5.025000    0.1000000     28.00000     31.49771   0.09566014
   0.09731541     9.388700     4.327847     106.5164     231.0618
   23.40290
     5.025000    0.1249141     34.97595     39.47424    0.1203423
    0.1227415     9.308525     4.356916     107.4286     229.5202
   23.41290
     5.025000    0.1250953     35.52477     39.03049    0.1222728
    0.1213373     9.332479     4.353652     107.1544     229.6922
