~Version ---------------------------------------------------
VERS.   2.0 : CWLS log ASCII Standard -VERSION 2.0
WRAP.    NO : One line per depth step
DLM . SPACE : Column Data Section Delimiter
~Well ------------------------------------------------------
STRT.m                      1.45 : START DEPTH
STOP.m                     166.6 : STOP DEPTH
STEP.m      0.050000000000000044 : STEP
NULL.                   -9999.25 : NULL VALUE
COMP.       Geoscience Australia : COMPANY
WELL.                    13BP01D : WELL
FLD .                            : FIELD
LOC .                            : LOCATION
PROV.                            : PROVINCE
CNTY.                            : COUNTY
STAT.                            : STATE
CTRY.                        AUS : COUNTRY
SRVC.                            : SERVICE COMPANY
DATE. 2019-05-28 16:13:54.403781 : DATE
UWI .                     627061 : UNIQUE WELL ID
API .                            : API NUMBER
X   .                   473886.6 : eastings (m)
Y   .                  8333260.7 : northings (m)
GDAT.                      GDA94 : geodetic datum
HZCS.                MGA zone 52 : Horizontal Co-ordinate System
PDAT.                         GL : Local Permanent Datum
LMF .    top of casing protector : Logging Measured From
APD .m                      0.73 : Elevation of Depth Reference (LMF) Above Permanent Datum
EPD .mAHD                  84.04 : Elevation of Permanent Datum (PDAT) above Mean Sea Level
~Curve Information -----------------------------------------
DEPT                          .m     : 
GR                            .API   : 
INDUCTION_BOREHOLE_COMPENSATED.mS/m  : 
~Params ----------------------------------------------------
~Other -----------------------------------------------------
Filtered  induction gamma logs for the East Kimberley EFtF project. Depth measurements are relative to a 
~ASCII -----------------------------------------------------
# ...
   95.85000   33.41133   16.91842
   95.90000   33.34453   16.90125
   95.95000   33.21838   16.88807
   96.00000   32.91996   16.87433
   96.05000   32.83013   16.86279
   96.10000   32.46551   16.85062
   96.15000   32.17591   16.83775
   96.20000   32.14978   16.81954
   96.25000   31.70272   16.79850
   96.30000   31.77483   16.77670
   96.35000   31.52946   16.75609
   96.40000   31.64947   16.73734
   96.45000   31.52837   16.72181
   96.50000   31.36388   16.70972
   96.55000   31.38323   16.69910
   96.60000   31.70739   16.68995
   96.65000   31.72861   16.67797
   96.70000   31.56175   16.66567
   96.75000   31.29531   16.64762
   96.80000   31.10480   16.62105
   96.85000   31.32790   16.58360
   96.90000   31.45611   16.53539
   96.95000   31.31115   16.49065
   97.00000   31.08665   16.44147
   97.05000   31.10131   16.37537
   97.10000   30.75601   16.30544
   97.15000   30.30777   16.24018
   97.20000   29.57229   16.18261
   97.25000   29.35932   16.12087
   97.30000   29.21817   16.05094
   97.35000   29.23886   15.99529
   97.40000   29.17318   15.94304
   97.45000   28.90478   15.89027
   97.50000   28.70172   15.83508
   97.55000   28.77790   15.78383
   97.60000   28.71030   15.75089
   97.65000   28.86607   15.72760
   97.70000   29.15781   15.71013
   97.75000   29.67133   15.69428
   97.80000   30.20780   15.67916
   97.85000   30.47120   15.65967
   97.90000   30.55348   15.63970
   97.95000   30.60034   15.61257
   98.00000   30.58706   15.58471
   98.05000   30.87654   15.56053
   98.10000   31.15342   15.53912
   98.15000   31.35727   15.52325
   98.20000   31.72414   15.50933
   98.25000   31.81801   15.50354
   98.30000   32.00180   15.50220
   98.35000   31.70116   15.50235
   98.40000   31.46645   15.50311
   98.45000   31.14812   15.50844
   98.50000   31.06477   15.51640
   98.55000   30.90388   15.52531
   98.60000   30.51252   15.53389
   98.65000   30.20270   15.54828
   98.70000   29.96003   15.56598
   98.75000   29.68609   15.58217
   98.80000   28.67098   15.60204
   98.85000   27.87702   15.62610
   98.90000   27.71038   15.65412
   98.95000   27.86688   15.68385
   99.00000   27.98237   15.71443
   99.05000   28.05375   15.74564
   99.10000   27.86448   15.77359
   99.15000   27.65811   15.79310
   99.20000   27.70771   15.80987
   99.25000   27.59409   15.81728
   99.30000   27.41725   15.82681
   99.35000   27.08628   15.84341
   99.40000   27.39253   15.87792
   99.45000   27.93795   15.92618
   99.50000   27.84449   15.97091
   99.55000   27.77226   16.01631
   99.60000   27.96681   16.05378
   99.65000   27.97170   16.07926
   99.70000   28.14831   16.08808
   99.75000   28.14654   16.09022
   99.80000   28.04294   16.09251
   99.85000   28.18479   16.09499
   99.90000   28.30454   16.09865
   99.95000   28.15715   16.10260
  100.00000   28.09985   16.09878
  100.05000   28.31848   16.08729
  100.10000   28.61307   16.08401
  100.15000   28.41235   16.08436
  100.20000   28.16883   16.09434
  100.25000   28.04234   16.09995
  100.30000   28.02334   16.11144
  100.35000   28.25344   16.12546
  100.40000   28.34294   16.12887
  100.45000   28.05134   16.12779
  100.50000   27.88299   16.11746
  100.55000   28.16944   16.11305
  100.60000   28.17851   16.10907
  100.65000   27.95287   16.10435
  100.70000   27.91523   16.09887
  100.75000   28.11765   16.08619
  100.80000   28.38487   16.05170
  100.85000   28.10805   16.01394
  100.90000   27.94021   15.97778
  100.95000   27.94725   15.94457
  101.00000   27.84820   15.90980
  101.05000   27.86772   15.88455
  101.10000   28.11090   15.88277
  101.15000   28.37413   15.87664
  101.20000   28.54898   15.86801
  101.25000   28.82004   15.86476
  101.30000   28.96017   15.86863
  101.35000   29.29165   15.87308
  101.40000   29.64453   15.87532
  101.45000   30.15265   15.88511
  101.50000   30.88495   15.89603
  101.55000   31.75365   15.90321
  101.60000   32.79248   15.91819
  101.65000   33.34175   15.94677
  101.70000   33.41178   15.97888
  101.75000   33.51931   16.00807
  101.80000   33.64398   16.04034
  101.85000   33.58183   16.07064
  101.90000   33.70259   16.08477
  101.95000   33.62874   16.08453
  102.00000   33.32680   16.07915
  102.05000   33.71715   16.07494
  102.10000   33.25101   16.06291
  102.15000   32.89719   16.04222
  102.20000   32.53470   16.01443
  102.25000   32.69387   15.97015
  102.30000   32.33268   15.92757
  102.35000   32.21371   15.87585
  102.40000   32.35094   15.82898
  102.45000   32.40118   15.79602
  102.50000   32.35928   15.77672
  102.55000   31.93377   15.77651
  102.60000   31.52023   15.77078
  102.65000   30.96254   15.76908
  102.70000   30.53308   15.75851
  102.75000   30.33031   15.73396
  102.80000   29.74997   15.70544
  102.85000   29.33602   15.67178
  102.90000   29.23311   15.64239
  102.95000   29.39400   15.61677
  103.00000   28.98298   15.59757
  103.05000   29.13352   15.58881
  103.10000   29.35046   15.58017
  103.15000   29.60368   15.57432
  103.20000   30.17974   15.56783
  103.25000   30.50730   15.55748
  103.30000   30.52928   15.53407
  103.35000   30.37773   15.49844
  103.40000   30.71819   15.46111
  103.45000   31.03458   15.42420
  103.50000   31.18090   15.39187
  103.55000   30.82426   15.36720
  103.60000   30.53059   15.35873
  103.65000   30.51238   15.37449
  103.70000   30.81522   15.39471
  103.75000   30.63827   15.40756
  103.80000   30.77967   15.41291
  103.85000   31.02739   15.41905
  103.90000   31.86444   15.41771
  103.95000   32.72891   15.39772
  104.00000   33.21912   15.37869
  104.05000   33.31638   15.36722
  104.10000   33.49205   15.35887
  104.15000   33.91132   15.34915
  104.20000   34.06619   15.34523
  104.25000   33.92507   15.34451
  104.30000   33.53946   15.35632
  104.35000   33.57423   15.37818
  104.40000   33.06249   15.41112
  104.45000   32.54967   15.44834
  104.50000   31.76678   15.47147
  104.55000   31.03807   15.48435
  104.60000   30.37068   15.48050
  104.65000   29.86181   15.46747
  104.70000   29.34654   15.43844
  104.75000   28.79864   15.40110
  104.80000   28.65896   15.37447
  104.85000   28.67790   15.35772
  104.90000   28.73567   15.34714
  104.95000   28.62622   15.33725
  105.00000   28.66346   15.33946
  105.05000   28.71862   15.36250
  105.10000   28.58358   15.39557
  105.15000   28.46394   15.42980
  105.20000   28.61880   15.46984
  105.25000   28.48941   15.50624
  105.30000   28.51341   15.52965
  105.35000   28.48796   15.53834
  105.40000   28.42757   15.54650
  105.45000   28.47571   15.55057
  105.50000   28.61768   15.54718
  105.55000   28.61473   15.54850
  105.60000   28.92297   15.55332
  105.65000   29.28104   15.55866
  105.70000   30.19888   15.55801
  105.75000   30.88860   15.55856
  105.80000   31.12812   15.55983
  105.85000   31.48617   15.56359
  105.90000   32.19352   15.57029
  105.95000   32.62697   15.57637
  106.00000   32.89749   15.58462
  106.05000   32.93836   15.59218
  106.10000   32.78737   15.59776
  106.15000   33.08917   15.60303
  106.20000   32.79276   15.61084
  106.25000   32.28354   15.62608
  106.30000   31.30234   15.63295
  106.35000   30.88505   15.63421
  106.40000   30.55093   15.63668
  106.45000   30.33042   15.63221
  106.50000   30.19589   15.61972
  106.55000   29.99666   15.60057
  106.60000   29.84972   15.58279
  106.65000   29.66480   15.56876
  106.70000   29.74830   15.55074
  106.75000   29.25491   15.53275
  106.80000   29.24079   15.50592
  106.85000   29.31749   15.46758
  106.90000   29.60447   15.43169
  106.95000   29.66921   15.39274
  107.00000   29.79963   15.35523
  107.05000   29.73437   15.32266
  107.10000   29.52008   15.30379
  107.15000   29.15572   15.29833
  107.20000   28.71527   15.29633
  107.25000   28.63154   15.29707
  107.30000   28.50547   15.30211
  107.35000   28.41897   15.30647
  107.40000   28.52441   15.30828
  107.45000   28.40160   15.30699
  107.50000   28.30376   15.30205
  107.55000   28.39441   15.29723
  107.60000   28.47518   15.28996
