#------------------------------------------------------------
~VERSION INFORMATION
VERS.               2.0  :CWLS LOG ASCII STANDARD - VERSION 2.0
WRAP.               YES  :MULTIPLE LINES PER DEPTH STEP
#------------------------------------------------------------
~WELL INFORMATION
STRT.M        0.4629000  :FIRST INDEX VALUE
STOP.M         166.9829  :LAST INDEX VALUE
STEP.M        0.0000000  :STEP
NULL.            -99999  :NULL VALUE
COMP.                    :COMPANY
WELL.                    :WELL
FLD.                     :FIELD
LOC.                     :LOCATION
SRVC.                    :
CTRY.                    :COUNTRY
STAT.                    :STATE
CNTY.                    :
DATE.                    :DATE
API.                     :
#------------------------------------------------------------
~CURVE INFORMATION
DEPT.M                   :DEPTH
SPEED.M/MIN              :Speed
TIME.SEC                 :Time
POSCOUNT.COUNT           :Poscount
NEGCOUNT.COUNT           :Negcount
POSDT.SEC                :Posdt
NEGDT.SEC                :Negdt
DEEP_INDUCTION.MS/M      :Deep Induction
MEDIUM_INDUCTION.MS/M    :Medium Induction
DEEP_RES.OHM-M           :Deep Res
MEDIUM_RES.OHM-M         :Medium Res
#------------------------------------------------------------
~PARAMETER INFORMATION
STE.                     :STE
TWP.                     :TWP
TYPE_FLUID_IN_HOLE.      :TYPE FLUID IN HOLE
CASING_FROM1.            :CASING FROM1
CASING_FROM2.            :CASING FROM2
CASING_FROM3.            :CASING FROM3
CASING_FROM4.            :CASING FROM4
BIT_TO3.                 :BIT TO3
CASING_FROM5.            :CASING FROM5
CASING_FROM6.            :CASING FROM6
BIT4.                    :BIT4
PERMANENT_DATUM.         :PERMANENT DATUM
BIT_TO2.                 :BIT TO2
K_B_.                    :K.B.
BIT5.                    :BIT5
BIT_TO1.                 :BIT TO1
TYPE_LOG.                :TYPE LOG
WELL_ID.                 :WELL ID
RUN1.                    :RUN1
RGE.                     :RGE
CO.                      :CO
ELEVATION.               :ELEVATION
TOP_LOGGED_INTERVAL.     :TOP LOGGED INTERVAL
RUN2.                    :RUN2
BTM_LOGGED_INTERVAL.     :BTM LOGGED INTERVAL
RUN3.                    :RUN3
BIT_TO6.                 :BIT TO6
WGT3.                    :WGT3
LOG_MEAS__FROM.          :LOG MEAS. FROM
RUN4.                    :RUN4
BIT_TO5.                 :BIT TO5
WGT2.                    :WGT2
D_F_.                    :D.F.
BIT_FROM2.               :BIT FROM2
RUN5.                    :RUN5
BIT_TO4.                 :BIT TO4
WGT1.                    :WGT1
BIT_FROM3.               :BIT FROM3
DEPTH-LOGGER.            :DEPTH-LOGGER
RUN6.                    :RUN6
RECORDED_BY.             :RECORDED BY
CTY.                     :CTY
MAX__REC__TEMP_.         :MAX. REC. TEMP.
BIT_FROM1.               :BIT FROM1
SEC.                     :SEC
CASING_TO1.              :CASING TO1
CASING_TO2.              :CASING TO2
CASING_TO3.              :CASING TO3
SALINITY.                :SALINITY
CASING_TO4.              :CASING TO4
CASING_TO5.              :CASING TO5
CASING_TO6.              :CASING TO6
WGT6.                    :WGT6
G_L_.                    :G.L.
BIT_FROM6.               :BIT FROM6
LEVEL.                   :LEVEL
WGT5.                    :WGT5
BIT2.                    :BIT2
DEPTH-DRILLER.           :DEPTH-DRILLER
DENSITY.                 :DENSITY
WITNESSED_BY.            :WITNESSED BY
WGT4.                    :WGT4
RUN_No.                  :RUN No
BIT3.                    :BIT3
BIT_FROM4.               :BIT FROM4
CASING_SIZE1.            :CASING SIZE1
CASING_SIZE2.            :CASING SIZE2
CASING_SIZE3.            :CASING SIZE3
CASING_SIZE4.            :CASING SIZE4
CASING_SIZE5.            :CASING SIZE5
CASING_SIZE6.            :CASING SIZE6
OTHER_SERVICES.          :OTHER SERVICES
BIT_FROM5.               :BIT FROM5
OPERATING_RIG_TIME.      :OPERATING RIG TIME
TITLE.                   :TITLE
BIT1.                    :BIT1
FILING_No.               :FILING No
DRILLING_MEAS__FROM.     :DRILLING MEAS. FROM
BIT6.                    :BIT6
#------------------------------------------------------------
~OTHER
#------------------------------------------------------------
~A
# ...
   78.30289
     4.975000    0.1000000     28.50229     32.00000   0.09667945
   0.09727533     11.76409     4.564045     85.00459     219.1039
   78.31290
     4.975000    0.1249047     35.47140     39.47140    0.1211644
    0.1206510     11.75282     4.569053     85.08597     218.8638
   78.32290
     4.975000    0.1250954     35.52860     39.52860    0.1213874
    0.1209741     11.79250     4.568820     84.80040     218.8749
   78.33290
     4.975000    0.1249237     35.47710     39.97557    0.1212276
    0.1223609     11.85677     4.582615     84.34052     218.2160
   78.34290
     4.975000    0.1250954     36.02670     40.03051    0.1231452
    0.1223794     11.88313     4.574125     84.15289     218.6210
   78.35290
     4.975000    0.1249047     35.47521     39.96949    0.1211673
    0.1220592     11.86905     4.570411     84.25282     218.7987
   78.36290
     4.975000    0.1250954     35.52479     40.03051    0.1213558
    0.1223666     11.86021     4.583185     84.31557     218.1889
   78.37290
     4.962539    0.1000000     28.50153     32.00000   0.09667042
   0.09722266     11.85929     4.575186     84.32209     218.5703
   78.38290
     4.950000    0.1249047     35.47140     39.47140    0.1211464
    0.1206352     11.82869     4.570411     84.54066     218.7987
   78.39290
     4.950000    0.1250954     35.52860     39.52860    0.1213611
    0.1209680     11.76102     4.599721     85.02766     217.4045
   78.40290
     4.950000    0.1249237     35.47710     39.97557    0.1211690
    0.1224211     11.71107     4.593497     85.38934     217.6991
   78.41290
     4.950000    0.1250954     35.52860     40.03051    0.1213349
    0.1224715     11.69412     4.605484     85.51311     217.1324
   78.42290
     4.950000    0.1249047     35.47140     39.96949    0.1211351
    0.1220525     11.71713     4.599072     85.34571     217.4352
   78.43290
     4.950000    0.1250954     36.02670     40.03051    0.1231050
    0.1223154     11.74965     4.588985     85.10895     217.9131
   78.44290
     4.950000    0.1000000     28.50153     31.50153   0.09670905
   0.09596308     11.76034     4.589516     85.03157     217.8879
   78.45290
     4.950000    0.1249047     35.47140     39.46758    0.1211821
    0.1208063     11.80103     4.596683     84.73896     217.5482
   78.46290
     4.937548    0.1250954     35.52860     40.03051    0.1213274
    0.1222271     11.86513     4.576118     84.28123     218.5258
   78.47290
     4.925000    0.1249047     35.47140     39.96949    0.1211201
    0.1219638     11.87703     4.584739     84.19641     218.1149
   78.48289
     4.925000    0.1251145     35.53435     40.03664    0.1213513
    0.1221979     11.84119     4.587334     84.45110     217.9916
   78.49290
     4.925000    0.1249047     35.47140     39.96949    0.1211637
    0.1222945     11.83725     4.578370     84.47916     218.4184
   78.50290
     4.925000    0.1250954     35.52860     40.03051    0.1213843
    0.1226592     11.80022     4.575186     84.74564     218.5703
   78.51290
     4.925000    0.1000000     28.49847     31.50153   0.09664782
   0.09575809     11.75131     4.577205     85.09686     218.4739
   78.52290
     4.925000    0.1249047     35.97330     39.46758    0.1228906
    0.1207500     11.74727     4.568820     85.12614     218.8749
   78.53290
     4.925000    0.1250954     35.52860     40.03051    0.1213286
    0.1225440     11.75975     4.582085     85.03599     218.2413
   78.54290
     4.937453    0.1249047     35.47140     39.96949    0.1211046
    0.1223380     11.78389     4.567523     84.86169     218.9371
   78.55289
     4.950000    0.1251145     35.53435     40.03664    0.1213063
    0.1225482     11.84758     4.585535     84.40730     218.0771
   78.56290
     4.950000    0.1249047     35.47140     39.96949    0.1210883
    0.1223236     11.87947     4.592170     84.17920     217.7620
   78.57290
     4.950000    0.1250954     35.52860     39.53242    0.1213092
    0.1209517     11.84183     4.628646     84.44652     216.0459
   78.58290
     4.950000    0.1000000     28.49847     31.49847   0.09665394
   0.09582995     11.84005     4.601727     84.45919     217.3097
   78.59290
     4.950000    0.1249047     35.47521     39.96949    0.1211867
    0.1224619     11.87650     4.607157     84.20030     217.0536
   78.60290
     4.950000    0.1250954     35.52479     40.03051    0.1213328
    0.1224258     11.86685     4.603852     84.26909     217.2094
   78.61290
     4.950000    0.1249047     35.97330     39.96949    0.1229074
    0.1220393     11.85176     4.613413     84.37588     216.7593
   78.62290
     4.962462    0.1250763     35.52290     40.02443    0.1213230
    0.1223132     11.81886     4.605504     84.61230     217.1315
   78.63290
     4.975000    0.1249047     35.47140     39.47140    0.1211195
    0.1206964     11.78041     4.618726     84.88683     216.5099
   78.64290
     4.975000    0.1250954     35.52860     39.52860    0.1213025
    0.1209140     11.78137     4.616601     84.87991     216.6096
   78.65290
     4.975000    0.1000000     28.49847     32.00000   0.09658213
   0.09733120     11.89629     4.615279     84.06994     216.6716
   78.66290
     4.975000    0.1249047     35.47521     39.96949    0.1210798
    0.1223779     11.96057     4.607835     83.61069     217.0217
   78.67290
     4.975000    0.1250954     35.52479     40.03051    0.1212421
    0.1225789     11.89114     4.621383     84.09619     216.3855
   78.68290
     4.975000    0.1249047     35.97330     39.47140    0.1228274
    0.1207972     11.88317     4.612941     84.15266     216.7815
   78.69290
     4.975000    0.1250763     35.52290     39.52290    0.1212679
    0.1209045     11.77488     4.596683     84.93298     217.5482
   78.70290
     4.987453    0.1249047     35.47140     39.96949    0.1211014
    0.1222020     11.64715     4.612558     85.85833     216.7995
   78.71290
     5.000000    0.1250954     35.52860     40.03051    0.1213142
    0.1223475     11.69168     4.647697     85.53397     215.1603
   78.72290
     5.000000    0.1000000     28.49809     32.00000   0.09661460
   0.09715941     11.76426     4.626697     85.00322     216.1369
   78.73289
     5.000000    0.1248855     35.47023     39.96336    0.1210736
    0.1221207     11.77681     4.646013     84.91273     215.2383
   78.74290
     5.000000    0.1250954     35.52479     40.03051    0.1212408
    0.1223680     11.76195     4.639455     85.02029     215.5426
   78.75290
     5.000000    0.1249047     35.97330     39.96949    0.1227975
    0.1222629     11.73828     4.608632     85.19138     216.9841
   78.76290
     5.000000    0.1250763     35.52290     39.52596    0.1212092
    0.1209164     11.75316     4.617899     85.08363     216.5487
   78.77290
     5.000000    0.1000000     28.49809     31.49809   0.09655139
   0.09574151     11.63378     4.650091     85.96787     215.0496
   78.78290
     5.000000    0.1249047     35.47521     39.96949    0.1210275
    0.1223012     11.55684     4.630949     86.53100     215.9385
   78.79290
     5.000000    0.1250954     35.52479     40.03051    0.1211826
    0.1224670     11.90475     4.654489     84.05045     214.8464
   78.80289
     5.000000    0.1248855     35.96794     39.96336    0.1227425
    0.1222090     12.11131     4.621383     82.57166     216.3855
   78.81290
     5.000000    0.1250954     35.52860     40.03051    0.1211830
    0.1223963     12.07053     4.604914     82.84763     217.1593
   78.82290
     5.000000    0.1000000     28.49809     32.00000   0.09648022
   0.09723121     12.12956     4.629473     82.44328     216.0073
   78.83290
     5.000000    0.1249237     35.48015     39.47710    0.1209585
    0.1207007     11.91448     4.658602     83.96230     214.6567
   78.84290
     5.000000    0.1250954     35.52479     39.52860    0.1211194
    0.1208766     11.53298     4.660464     86.72308     214.5709
   78.85290
     5.000000    0.1249047     35.97330     39.96949    0.1227194
    0.1222724     11.68789     4.646013     85.61896     215.2383
