#------------------------------------------------------------
~VERSION INFORMATION
VERS.               2.0  :CWLS LOG ASCII STANDARD - VERSION 2.0
WRAP.               YES  :MULTIPLE LINES PER DEPTH STEP
#------------------------------------------------------------
~WELL INFORMATION
STRT.M        0.4629000  :FIRST INDEX VALUE
STOP.M         166.9829  :LAST INDEX VALUE
STEP.M        0.0000000  :STEP
NULL.            -99999  :NULL VALUE
COMP.                    :COMPANY
WELL.                    :WELL
FLD.                     :FIELD
LOC.                     :LOCATION
SRVC.                    :
CTRY.                    :COUNTRY
STAT.                    :STATE
CNTY.                    :
DATE.                    :DATE
API.                     :
#------------------------------------------------------------
~CURVE INFORMATION
DEPT.M                   :DEPTH
SPEED.M/MIN              :Speed
TIME.SEC                 :Time
POSCOUNT.COUNT           :Poscount
NEGCOUNT.COUNT           :Negcount
POSDT.SEC                :Posdt
NEGDT.SEC                :Negdt
DEEP_INDUCTION.MS/M      :Deep Induction
MEDIUM_INDUCTION.MS/M    :Medium Induction
DEEP_RES.OHM-M           :Deep Res
MEDIUM_RES.OHM-M         :Medium Res
#------------------------------------------------------------
~PARAMETER INFORMATION
STE.                     :STE
TWP.                     :TWP
TYPE_FLUID_IN_HOLE.      :TYPE FLUID IN HOLE
CASING_FROM1.            :CASING FROM1
CASING_FROM2.            :CASING FROM2
CASING_FROM3.            :CASING FROM3
CASING_FROM4.            :CASING FROM4
BIT_TO3.                 :BIT TO3
CASING_FROM5.            :CASING FROM5
CASING_FROM6.            :CASING FROM6
BIT4.                    :BIT4
PERMANENT_DATUM.         :PERMANENT DATUM
BIT_TO2.                 :BIT TO2
K_B_.                    :K.B.
BIT5.                    :BIT5
BIT_TO1.                 :BIT TO1
TYPE_LOG.                :TYPE LOG
WELL_ID.                 :WELL ID
RUN1.                    :RUN1
RGE.                     :RGE
CO.                      :CO
ELEVATION.               :ELEVATION
TOP_LOGGED_INTERVAL.     :TOP LOGGED INTERVAL
RUN2.                    :RUN2
BTM_LOGGED_INTERVAL.     :BTM LOGGED INTERVAL
RUN3.                    :RUN3
BIT_TO6.                 :BIT TO6
WGT3.                    :WGT3
LOG_MEAS__FROM.          :LOG MEAS. FROM
RUN4.                    :RUN4
BIT_TO5.                 :BIT TO5
WGT2.                    :WGT2
D_F_.                    :D.F.
BIT_FROM2.               :BIT FROM2
RUN5.                    :RUN5
BIT_TO4.                 :BIT TO4
WGT1.                    :WGT1
BIT_FROM3.               :BIT FROM3
DEPTH-LOGGER.            :DEPTH-LOGGER
RUN6.                    :RUN6
RECORDED_BY.             :RECORDED BY
CTY.                     :CTY
MAX__REC__TEMP_.         :MAX. REC. TEMP.
BIT_FROM1.               :BIT FROM1
SEC.                     :SEC
CASING_TO1.              :CASING TO1
CASING_TO2.              :CASING TO2
CASING_TO3.              :CASING TO3
SALINITY.                :SALINITY
CASING_TO4.              :CASING TO4
CASING_TO5.              :CASING TO5
CASING_TO6.              :CASING TO6
WGT6.                    :WGT6
G_L_.                    :G.L.
BIT_FROM6.               :BIT FROM6
LEVEL.                   :LEVEL
WGT5.                    :WGT5
BIT2.                    :BIT2
DEPTH-DRILLER.           :DEPTH-DRILLER
DENSITY.                 :DENSITY
WITNESSED_BY.            :WITNESSED BY
WGT4.                    :WGT4
RUN_No.                  :RUN No
BIT3.                    :BIT3
BIT_FROM4.               :BIT FROM4
CASING_SIZE1.            :CASING SIZE1
CASING_SIZE2.            :CASING SIZE2
CASING_SIZE3.            :CASING SIZE3
CASING_SIZE4.            :CASING SIZE4
CASING_SIZE5.            :CASING SIZE5
CASING_SIZE6.            :CASING SIZE6
OTHER_SERVICES.          :OTHER SERVICES
BIT_FROM5.               :BIT FROM5
OPERATING_RIG_TIME.      :OPERATING RIG TIME
TITLE.                   :TITLE
BIT1.                    :BIT1
FILING_No.               :FILING No
DRILLING_MEAS__FROM.     :DRILLING MEAS. FROM
BIT6.                    :BIT6
#------------------------------------------------------------
~OTHER
#------------------------------------------------------------
~A
# ...
   166.2229
     4.025000    0.1500000     43.49847     48.49847    0.1465547
    0.1472322     13.76950     5.701222     72.62482     175.4010
   166.2329
     4.025000    0.1500000     43.50229     48.50229    0.1465779
    0.1472047     13.68912     5.756127     73.05618     173.7279
   166.2429
     4.025000    0.1500000     43.49771     48.49771    0.1465546
    0.1471785     13.57043     5.752330     73.68966     173.8426
   166.2529
     4.025000    0.1500000     43.50153     48.50153    0.1465603
    0.1472277     13.60269     5.752556     73.51529     173.8358
   166.2629
     4.025000    0.1500000     43.49771     48.00000    0.1465434
    0.1457063     13.64489     5.755867     73.28754     173.7358
   166.2729
     4.025000    0.1500000     43.50076     48.49924    0.1465358
    0.1472364     13.68001     5.767353     73.09960     173.3898
   166.2829
     4.025000    0.1500000     43.49847     48.50153    0.1465409
    0.1472222     13.68838     5.757012     73.05476     173.7012
   166.2929
     4.025000    0.1500000     43.50229     48.49771    0.1465785
    0.1472147     13.80521     5.768064     72.44335     173.3684
   166.3029
     3.962691    0.1500000     43.49847     48.50153    0.1465566
    0.1472335     13.73866     5.786057     72.80323     172.8293
   166.3129
     3.900000    0.1500000     43.50229     48.00000    0.1465492
    0.1456346     13.74585     5.794921     72.76661     172.5649
   166.3229
     3.900000    0.1500000     43.49771     48.49771    0.1465159
    0.1471223     13.88410     5.797438     72.02699     172.4900
   166.3329
     3.900000    0.1500000     43.50153     48.50153    0.1465383
    0.1471584     13.82463     5.790684     72.33476     172.6912
   166.3429
     3.900000    0.1500000     43.49771     48.49771    0.1465439
    0.1472097     13.84508     5.800354     72.22784     172.4033
   166.3529
     3.900000    0.1500000     43.50229     48.50229    0.1465361
    0.1472602     13.85084     5.803191     72.19777     172.3190
   166.3629
     3.787843    0.1500000     43.49847     48.00000    0.1464898
    0.1456870     13.84456     5.802141     72.23058     172.3502
   166.3729
     3.675000    0.1500000     43.50229     48.49771    0.1465234
    0.1472035     13.83866    -99999.00     72.26134    -99999.00
   166.3829
     3.675000    0.1500000     43.49771     48.50229    0.1465452
    0.1472333     13.80738    -99999.00     72.42545    -99999.00
   166.3929
     3.675000    0.1500000     43.50153     48.49847    0.1465958
    0.1471973     13.77199    -99999.00     72.61115    -99999.00
   166.4029
     3.675000    0.1500000     43.49771     48.50229    0.1466264
    0.1471640     13.77919    -99999.00     72.57323    -99999.00
   166.4129
     3.675000    0.1749618     50.98931     56.48702    0.1724813
    0.1718386     13.82724    -99999.00     72.32163    -99999.00
   166.4229
     3.675000    0.1750762     50.52287     56.52592    0.1708521
    0.1719508     13.88872    -99999.00     72.00107    -99999.00
   166.4329
     3.587901    0.1500000     43.49771     48.00000    0.1466040
    0.1455147     13.92341    -99999.00     71.82153    -99999.00
   166.4429
     3.500000    0.1500000     43.50153     48.49847    0.1466122
    0.1470395     13.94136    -99999.00     71.72902    -99999.00
   166.4529
     3.500000    0.1748855     50.46565     56.96336    0.1706520
    0.1733227    -99999.00    -99999.00    -99999.00    -99999.00
   166.4629
     3.500000    0.1751145     51.03206     56.53893    0.1726219
    0.1719895    -99999.00    -99999.00    -99999.00    -99999.00
   166.4729
     3.500000    0.1500000     43.50153     48.00000    0.1466340
    0.1455094    -99999.00    -99999.00    -99999.00    -99999.00
   166.4829
     3.500000    0.1748855     50.46565     56.46107    0.1706683
    0.1716877    -99999.00    -99999.00    -99999.00    -99999.00
   166.4929
     3.400458    0.1751145     51.03206     56.53893    0.1726462
    0.1719006    -99999.00    -99999.00    -99999.00    -99999.00
   166.5029
     3.300000    0.1500000     43.50153     48.49847    0.1466834
    0.1469760    -99999.00    -99999.00    -99999.00    -99999.00
   166.5129
     3.300000    0.1748855     50.46565     56.96336    0.1707252
    0.1731616    -99999.00    -99999.00    -99999.00    -99999.00
   166.5229
     3.300000    0.1750382     51.01069     56.51298    0.1725963
    0.1717939    -99999.00    -99999.00    -99999.00    -99999.00
   166.5329
     3.300000    0.1749238     50.97866     56.47408    0.1724807
    0.1717178    -99999.00    -99999.00    -99999.00    -99999.00
   166.5429
     3.300000    0.1751145     50.53435     56.53893    0.1709430
    0.1719542    -99999.00    -99999.00    -99999.00    -99999.00
   166.5529
     3.212767    0.1749238     50.47713     56.47408    0.1707199
    0.1715386    -99999.00    -99999.00    -99999.00    -99999.00
   166.5629
     3.125000    0.1751145     50.53435     56.53893    0.1709346
    0.1716834    -99999.00    -99999.00    -99999.00    -99999.00
   166.5729
     3.125000    0.1748855     50.46565     56.46107    0.1707010
    0.1716238    -99999.00    -99999.00    -99999.00    -99999.00
   166.5829
     3.125000    0.2000000     58.00000     65.00000    0.1966787
    0.1980787    -99999.00    -99999.00    -99999.00    -99999.00
   166.5929
     3.125000    0.1751145     51.03206     56.53893    0.1726313
    0.1718968    -99999.00    -99999.00    -99999.00    -99999.00
   166.6029
     2.975687    0.1748855     50.96794     56.46107    0.1724019
    0.1716296    -99999.00    -99999.00    -99999.00    -99999.00
   166.6129
     2.825000    0.2000000     58.00000     64.50153    0.1966694
    0.1965085    -99999.00    -99999.00    -99999.00    -99999.00
   166.6229
     2.825000    0.2000000     58.00000     64.49771    0.1966526
    0.1965490    -99999.00    -99999.00    -99999.00    -99999.00
   166.6329
     2.825000    0.2000000     58.00000     65.00000    0.1966338
    0.1981463    -99999.00    -99999.00    -99999.00    -99999.00
   166.6429
     2.825000    0.2000000     58.00000     64.50153    0.1966643
    0.1965493    -99999.00    -99999.00    -99999.00    -99999.00
   166.6529
     2.825000    0.2000000     58.00000     64.49771    0.1966894
    0.1965010    -99999.00    -99999.00    -99999.00    -99999.00
   166.6629
     2.725153    0.2000000     58.00000     64.50076    0.1966700
    0.1964881    -99999.00    -99999.00    -99999.00    -99999.00
   166.6729
     2.625000    0.2000000     58.00000     64.49847    0.1966494
    0.1963344    -99999.00    -99999.00    -99999.00    -99999.00
   166.6829
     2.625000    0.2248855     64.96794     72.96336    0.2206962
    0.2224944    -99999.00    -99999.00    -99999.00    -99999.00
   166.6929
     2.625000    0.2250762     65.02134     73.02439    0.2208830
    0.2227873    -99999.00    -99999.00    -99999.00    -99999.00
   166.7029
     2.575229    0.2000000     58.00000     64.50229    0.1966369
    0.1964489    -99999.00    -99999.00    -99999.00    -99999.00
   166.7129
     2.525000    0.2248855     64.96794     72.46107    0.2206669
    0.2210721    -99999.00    -99999.00    -99999.00    -99999.00
   166.7229
     2.525000    0.2250762     65.02134     73.02439    0.2208480
    0.2228049    -99999.00    -99999.00    -99999.00    -99999.00
   166.7329
     2.525000    0.2248855     65.46565     72.96336    0.2223572
    0.2226035    -99999.00    -99999.00    -99999.00    -99999.00
   166.7429
     2.525000    0.2500000     72.50229     80.50229    0.2465706
    0.2457821    -99999.00    -99999.00    -99999.00    -99999.00
   166.7529
     2.512538    0.2500000     72.49847     80.49847    0.2465029
    0.2456502    -99999.00    -99999.00    -99999.00    -99999.00
   166.7629
     2.500000    0.2251145     65.53435     73.03664    0.2224436
    0.2225579    -99999.00    -99999.00    -99999.00    -99999.00
   166.7729
     2.500000    0.2249618     64.98931     72.98779    0.2205456
    0.2225594    -99999.00    -99999.00    -99999.00    -99999.00
