#------------------------------------------------------------
~VERSION INFORMATION
VERS.               2.0  :CWLS LOG ASCII STANDARD - VERSION 2.0
WRAP.               YES  :MULTIPLE LINES PER DEPTH STEP
#------------------------------------------------------------
~WELL INFORMATION
STRT.M        0.4629000  :FIRST INDEX VALUE
STOP.M         166.9829  :LAST INDEX VALUE
STEP.M        0.0000000  :STEP
NULL.            -99999  :NULL VALUE
COMP.                    :COMPANY
WELL.                    :WELL
FLD.                     :FIELD
LOC.                     :LOCATION
SRVC.                    :
CTRY.                    :COUNTRY
STAT.                    :STATE
CNTY.                    :
DATE.                    :DATE
API.                     :
#------------------------------------------------------------
~CURVE INFORMATION
DEPT.M                   :DEPTH
SPEED.M/MIN              :Speed
TIME.SEC                 :Time
POSCOUNT.COUNT           :Poscount
NEGCOUNT.COUNT           :Negcount
POSDT.SEC                :Posdt
NEGDT.SEC                :Negdt
DEEP_INDUCTION.MS/M      :Deep Induction
MEDIUM_INDUCTION.MS/M    :Medium Induction
DEEP_RES.OHM-M           :Deep Res
MEDIUM_RES.OHM-M         :Medium Res
#------------------------------------------------------------
~PARAMETER INFORMATION
STE.                     :STE
TWP.                     :TWP
TYPE_FLUID_IN_HOLE.      :TYPE FLUID IN HOLE
CASING_FROM1.            :CASING FROM1
CASING_FROM2.            :CASING FROM2
CASING_FROM3.            :CASING FROM3
CASING_FROM4.            :CASING FROM4
BIT_TO3.                 :BIT TO3
CASING_FROM5.            :CASING FROM5
CASING_FROM6.            :CASING FROM6
BIT4.                    :BIT4
PERMANENT_DATUM.         :PERMANENT DATUM
BIT_TO2.                 :BIT TO2
K_B_.                    :K.B.
BIT5.                    :BIT5
BIT_TO1.                 :BIT TO1
TYPE_LOG.                :TYPE LOG
WELL_ID.                 :WELL ID
RUN1.                    :RUN1
RGE.                     :RGE
CO.                      :CO
ELEVATION.               :ELEVATION
TOP_LOGGED_INTERVAL.     :TOP LOGGED INTERVAL
RUN2.                    :RUN2
BTM_LOGGED_INTERVAL.     :BTM LOGGED INTERVAL
RUN3.                    :RUN3
BIT_TO6.                 :BIT TO6
WGT3.                    :WGT3
LOG_MEAS__FROM.          :LOG MEAS. FROM
RUN4.                    :RUN4
BIT_TO5.                 :BIT TO5
WGT2.                    :WGT2
D_F_.                    :D.F.
BIT_FROM2.               :BIT FROM2
RUN5.                    :RUN5
BIT_TO4.                 :BIT TO4
WGT1.                    :WGT1
BIT_FROM3.               :BIT FROM3
DEPTH-LOGGER.            :DEPTH-LOGGER
RUN6.                    :RUN6
RECORDED_BY.             :RECORDED BY
CTY.                     :CTY
MAX__REC__TEMP_.         :MAX. REC. TEMP.
BIT_FROM1.               :BIT FROM1
SEC.                     :SEC
CASING_TO1.              :CASING TO1
CASING_TO2.              :CASING TO2
CASING_TO3.              :CASING TO3
SALINITY.                :SALINITY
CASING_TO4.              :CASING TO4
CASING_TO5.              :CASING TO5
CASING_TO6.              :CASING TO6
WGT6.                    :WGT6
G_L_.                    :G.L.
BIT_FROM6.               :BIT FROM6
LEVEL.                   :LEVEL
WGT5.                    :WGT5
BIT2.                    :BIT2
DEPTH-DRILLER.           :DEPTH-DRILLER
DENSITY.                 :DENSITY
WITNESSED_BY.            :WITNESSED BY
WGT4.                    :WGT4
RUN_No.                  :RUN No
BIT3.                    :BIT3
BIT_FROM4.               :BIT FROM4
CASING_SIZE1.            :CASING SIZE1
CASING_SIZE2.            :CASING SIZE2
CASING_SIZE3.            :CASING SIZE3
CASING_SIZE4.            :CASING SIZE4
CASING_SIZE5.            :CASING SIZE5
CASING_SIZE6.            :CASING SIZE6
OTHER_SERVICES.          :OTHER SERVICES
BIT_FROM5.               :BIT FROM5
OPERATING_RIG_TIME.      :OPERATING RIG TIME
TITLE.                   :TITLE
BIT1.                    :BIT1
FILING_No.               :FILING No
DRILLING_MEAS__FROM.     :DRILLING MEAS. FROM
BIT6.                    :BIT6
#------------------------------------------------------------
~OTHER
#------------------------------------------------------------
~A
# ...
   34.06290
     5.100000    0.1000000     28.00000     31.00000   0.09619997
   0.09660944     8.686612     3.940953     115.1428     253.7457
   34.07290
     5.100000    0.1249237     34.97863     38.47710    0.1210290
    0.1206463     8.797625     3.971601     113.6673     251.7876
   34.08290
     5.100000    0.1250762     35.51982     38.52287    0.1229181
    0.1207369     8.725223     3.957941     114.6156     252.6566
   34.09290
     5.100000    0.1000000     28.50191     31.00000   0.09793423
   0.09646629     8.657395     3.958923     115.5083     252.5939
   34.10290
     5.100000    0.1248857     34.96799     38.96341    0.1209835
    0.1220462     8.689792     3.950817     115.0801     253.1122
   34.11290
     5.100000    0.1251145     35.03206     39.03664    0.1211893
    0.1222915     8.768104     3.945806     114.0518     253.4337
   34.12290
     5.100000    0.1000000     28.00000     31.00000   0.09611377
   0.09647376     8.825702     3.959559     113.3060     252.5534
   34.13290
     5.100000    0.1249047     34.97332     38.96951    0.1209226
    0.1221318     8.825914     3.948521     113.3033     253.2594
   34.14290
     5.100000    0.1251145     35.03206     39.03664    0.1211384
    0.1223685     8.746482     3.968462     114.3370     251.9868
   34.15290
     5.100000    0.1000000     28.00000     31.00000   0.09611876
   0.09652621     8.663286     3.982225     115.4305     251.1159
   34.16290
     5.100000    0.1249047     34.97332     38.96951    0.1209151
    0.1221657     8.759095     3.971411     114.1884     251.7997
   34.17290
     5.100000    0.1250954     35.02672     39.03053    0.1210664
    0.1223121     8.802159     3.961178     113.6174     252.4502
   34.18290
     5.100000    0.1000000     28.49847     31.00000   0.09781206
   0.09645309     8.744242     3.965224     114.3616     252.1926
   34.19290
     5.100000    0.1249047     35.47523     38.96951    0.1226263
    0.1221050     8.768847     3.977367     114.0401     251.4226
   34.20290
     5.100000    0.1250954     35.02672     39.03053    0.1210170
    0.1223194     8.839158     3.961004     113.1393     252.4612
   34.21290
     5.100000    0.1000000     28.00000     31.00000   0.09599817
   0.09647758     8.771017     3.961178     114.0391     252.4502
   34.22290
     5.100000    0.1249238     34.97866     38.47713    0.1207873
    0.1204342     8.674228     3.927208     115.2865     254.6339
   34.23290
     5.100000    0.1250954     35.02672     39.02672    0.1209730
    0.1222449     8.800593     3.944957     113.6397     253.4882
   34.24290
     5.100000    0.1249047     34.97332     38.97332    0.1207933
    0.1221842     8.759730     3.916037     114.1834     255.3602
   34.25290
     5.100000    0.1251145     35.52977     38.53435    0.1227403
    0.1206523     8.641186     3.879551     115.7251     257.7618
   34.26290
     5.100000    0.1000000     28.50191     31.00000   0.09774239
   0.09635105     8.638400     3.883587     115.7625     257.4939
   34.27290
     5.100000    0.1249047     34.97332     38.96951    0.1207309
    0.1220326     8.585502     3.892271     116.4778     256.9195
   34.28290
     5.100000    0.1251145     35.03206     39.03664    0.1209246
    0.1222702     8.518667     3.880358     117.3905     257.7082
   34.29290
     5.100000    0.1000000     28.00000     31.00000   0.09592815
   0.09644874     8.646075     3.869319     115.6970     258.4434
   34.30290
     5.100000    0.1249047     35.47142     38.96951    0.1224460
    0.1220626     8.664532     3.844982     115.4427     260.0792
   34.31290
     5.100000    0.1250954     35.52863     39.03053    0.1226248
    0.1222463     8.682878     3.835997     115.2077     260.6884
   34.32290
     5.100000    0.1000000     28.00000     31.00000   0.09587687
   0.09642998     8.843036     3.828744     113.0833     261.1823
   34.33290
     5.100000    0.1249238     34.97866     38.97561    0.1206486
    0.1221271     8.752391     3.819508     114.2670     261.8138
   34.34290
     5.100000    0.1250954     35.02672     39.03053    0.1208092
    0.1222940     8.678246     3.790061     115.2311     263.8480
   34.35290
     5.124886    0.1000000     28.00000     31.00000   0.09584632
   0.09634532     8.765247     3.782926     114.0941     264.3456
   34.36290
     5.150000    0.1248855     35.46565     38.96336    0.1223486
    0.1219251     8.746472     3.753896     114.3436     266.3899
   34.37290
     5.150000    0.1250954     35.52863     39.03053    0.1225991
    0.1222081     8.598674     3.761131     116.3024     265.8775
   34.38290
     5.150000    0.1000000     28.00000     31.00000   0.09589496
   0.09644797     8.515938     3.763328     117.4278     265.7223
   34.39290
     5.150000    0.1248855     34.96794     38.96336    0.1206319
    0.1220499     8.510835     3.749073     117.4979     266.7326
   34.40290
     5.150000    0.1250763     35.02137     39.02443    0.1207972
    0.1222166     8.522537     3.723393     117.3360     268.5722
   34.41290
     5.150000    0.1000000     28.49809     31.00000   0.09761639
   0.09645864     8.498155     3.703550     117.6731     270.0112
   34.42290
     5.150000    0.1249046     35.47519     38.96947    0.1223838
    0.1220919     8.539421     3.696876     117.1095     270.4987
   34.43290
     5.150000    0.1250763     35.02137     39.02443    0.1207690
    0.1222473     8.690099     3.685645     115.0864     271.3230
   34.44290
     5.150000    0.1249047     34.97332     38.47142    0.1205753
    0.1204631     8.728365     3.668688     114.5735     272.5770
   34.45290
     5.150000    0.1250954     35.02672     38.52863    0.1207604
    0.1205953     8.671814     3.644766     115.3161     274.3660
   34.46290
     5.150000    0.1000000     28.49847     31.49847   0.09759396
   0.09792577     8.770680     3.659188     114.0314     273.2847
   34.47290
     5.150000    0.1249238     35.48018     38.97866    0.1223909
    0.1219227     8.840947     3.669744     113.1115     272.4986
   34.48290
     5.150000    0.1250954     35.02672     38.52863    0.1207606
    0.1204663     8.727051     3.640761     114.5965     274.6678
   34.49290
     5.150000    0.1000000     28.00000     31.49809   0.09577566
   0.09790941     8.638779     3.643736     115.7571     274.4436
   34.50290
     5.150000    0.1248855     35.46565     38.96794    0.1222513
    0.1218897     8.709513     3.630176     114.8258     275.4688
   34.51290
     5.150000    0.1250954     35.52863     38.52863    0.1224666
    0.1204756     8.787892     3.599143     113.7929     277.8439
   34.52290
     5.150000    0.1000000     28.00000     31.49809   0.09575125
   0.09797122     8.812693     3.577497     113.4735     279.5251
   34.53290
     5.150000    0.1000000     28.00000     31.50229   0.09576307
   0.09803607     8.841447     3.543206     113.1037     282.2303
   34.54290
     5.150000    0.1249237     34.97863     38.47710    0.1205186
    0.1204639     8.837066     3.582351     113.1599     279.1463
   34.55290
     5.150000    0.1250953     35.52477     38.52858    0.1224379
    0.1206287     8.852878     3.584340     112.9586     278.9914
   34.56290
     5.150000    0.1000000     28.50191     31.49809   0.09751803
   0.09792552     8.857226     3.591146     112.9028     278.4627
   34.57290
     5.150000    0.1249237     34.97863     38.97863    0.1204830
    0.1219635     8.850851     3.600743     112.9838     277.7205
   34.58290
     5.150000    0.1250762     35.02134     38.52287    0.1206413
    0.1206029     8.895531     3.610147     112.4172     276.9970
   34.59290
     5.150000    0.1000000     28.00000     31.00000   0.09576681
   0.09646983     8.859167     3.627149     112.8837     275.6986
   34.60290
     5.150000    0.1248857     35.46570     38.96341    0.1221943
    0.1219892     8.901500     3.607142     112.3576     277.2278
   34.61290
     5.174885    0.1251145     35.53435     39.03664    0.1223818
    0.1221395     8.925488     3.573813     112.0492     279.8132
