~Version ---------------------------------------------------
VERS.   2.0 : CWLS log ASCII Standard -VERSION 2.0
WRAP.    NO : One line per depth step
DLM . SPACE : Column Data Section Delimiter
~Well ------------------------------------------------------
STRT.m                      1.45 : START DEPTH
STOP.m                     166.6 : STOP DEPTH
STEP.m      0.050000000000000044 : STEP
NULL.                   -9999.25 : NULL VALUE
COMP.       Geoscience Australia : COMPANY
WELL.                    13BP01D : WELL
FLD .                            : FIELD
LOC .                            : LOCATION
PROV.                            : PROVINCE
CNTY.                            : COUNTY
STAT.                            : STATE
CTRY.                        AUS : COUNTRY
SRVC.                            : SERVICE COMPANY
DATE. 2019-05-28 16:13:54.403781 : DATE
UWI .                     627061 : UNIQUE WELL ID
API .                            : API NUMBER
X   .                   473886.6 : eastings (m)
Y   .                  8333260.7 : northings (m)
GDAT.                      GDA94 : geodetic datum
HZCS.                MGA zone 52 : Horizontal Co-ordinate System
PDAT.                         GL : Local Permanent Datum
LMF .    top of casing protector : Logging Measured From
APD .m                      0.73 : Elevation of Depth Reference (LMF) Above Permanent Datum
EPD .mAHD                  84.04 : Elevation of Permanent Datum (PDAT) above Mean Sea Level
~Curve Information -----------------------------------------
DEPT                          .m     : 
GR                            .API   : 
INDUCTION_BOREHOLE_COMPENSATED.mS/m  : 
~Params ----------------------------------------------------
~Other -----------------------------------------------------
Filtered  induction gamma logs for the East Kimberley EFtF project. Depth measurements are relative to a 
~ASCII -----------------------------------------------------
# ...
   36.85000   41.39149   17.63381
   36.90000   41.89580   17.66686
   36.95000   42.17046   17.71841
   37.00000   42.51395   17.78191
   37.05000   42.96521   17.99612
   37.10000   43.48258   18.27578
   37.15000   44.55921   18.64176
   37.20000   45.62126   19.06738
   37.25000   46.71160   19.48783
   37.30000   47.72628   19.87283
   37.35000   49.00937   20.16628
   37.40000   49.96084   20.41234
   37.45000   50.76525   20.54758
   37.50000   51.12873   20.59073
   37.55000   51.18045   20.63472
   37.60000   51.55316   20.66237
   37.65000   51.23616   20.66744
   37.70000   50.92145   20.70984
   37.75000   50.51243   20.79516
   37.80000   50.49262   20.86606
   37.85000   49.99294   20.85083
   37.90000   49.48860   20.82215
   37.95000   48.70228   20.79936
   38.00000   48.33381   20.75130
   38.05000   48.55492   20.67156
   38.10000   48.86267   20.62097
   38.15000   49.34706   20.69330
   38.20000   50.09537   20.77505
   38.25000   51.13153   20.84936
   38.30000   52.71078   20.88469
   38.35000   54.61668   20.84098
   38.40000   56.93056   20.67208
   38.45000   60.39960   20.41562
   38.50000   63.71925   20.15032
   38.55000   66.46835   19.88002
   38.60000   68.57900   19.57956
   38.65000   70.04530   19.30816
   38.70000   70.76121   19.12614
   38.75000   70.74099   18.96211
   38.80000   69.66841   18.79754
   38.85000   68.85534   18.65218
   38.90000   67.35751   18.57754
   38.95000   64.77417   18.55585
   39.00000   61.17114   18.54623
   39.05000   57.24562   18.54455
   39.10000   53.57487   18.53949
   39.15000   50.08307   18.49357
   39.20000   47.57847   18.41237
   39.25000   45.08671   18.31591
   39.30000   43.70701   18.21272
   39.35000   42.74265   18.10856
   39.40000   41.78474   17.99765
   39.45000   40.62221   17.91384
   39.50000   39.34991   17.85463
   39.55000   38.44792   17.80722
   39.60000   37.89852   17.76287
   39.65000   37.39988   17.70391
   39.70000   37.23243   17.64891
   39.75000   37.13330   17.59810
   39.80000   36.83419   17.54799
   39.85000   36.96190   17.50059
   39.90000   36.92747   17.46301
   39.95000   37.37449   17.45699
   40.00000   38.26803   17.48443
   40.05000   39.75009   17.54261
   40.10000   42.22120   17.61365
   40.15000   45.25389   17.68522
   40.20000   48.85171   17.75276
   40.25000   52.67416   17.80826
   40.30000   55.71549   17.83312
   40.35000   58.54584   17.82571
   40.40000   60.94672   17.79478
   40.45000   62.95478   17.74704
   40.50000   63.62447   17.69199
   40.55000   64.30982   17.63547
   40.60000   64.17285   17.58000
   40.65000   63.15675   17.52803
   40.70000   61.16070   17.48644
   40.75000   58.71209   17.45289
   40.80000   56.01677   17.40956
   40.85000   52.65225   17.35208
   40.90000   49.87036   17.28314
   40.95000   47.36933   17.20755
   41.00000   45.27174   17.12105
   41.05000   43.07964   17.03527
   41.10000   41.63697   16.96065
   41.15000   40.17734   16.89991
   41.20000   38.87143   16.85474
   41.25000   37.88148   16.82097
   41.30000   36.88443   16.80206
   41.35000   35.69079   16.78273
   41.40000   34.64785   16.76264
   41.45000   33.63381   16.73957
   41.50000   32.84331   16.71570
   41.55000   32.42421   16.69273
   41.60000   31.66744   16.67470
   41.65000   31.22883   16.66738
   41.70000   31.65416   16.67105
   41.75000   31.64465   16.68890
   41.80000   31.71137   16.71634
   41.85000   32.00410   16.74825
   41.90000   32.65808   16.78394
   41.95000   32.72905   16.82499
   42.00000   32.73746   16.88482
   42.05000   33.28877   16.95044
   42.10000   33.58067   17.02659
   42.15000   33.85308   17.12645
   42.20000   34.78943   17.23931
   42.25000   35.91659   17.36434
   42.30000   36.76771   17.50085
   42.35000   38.27238   17.65997
   42.40000   40.15091   17.85667
   42.45000   41.80171   18.05486
   42.50000   43.10452   18.25291
   42.55000   44.99130   18.44304
   42.60000   47.34150   18.61543
   42.65000   49.80242   18.76045
   42.70000   51.92002   18.86780
   42.75000   53.44928   18.97408
   42.80000   54.52970   19.07797
   42.85000   55.53276   19.16528
   42.90000   56.44384   19.23440
   42.95000   56.49588   19.28965
   43.00000   56.20883   19.32164
   43.05000   55.78522   19.32447
   43.10000   55.21871   19.30416
   43.15000   54.00405   19.26826
   43.20000   52.43052   19.22690
   43.25000   50.83932   19.18249
   43.30000   49.91720   19.13956
   43.35000   48.17050   19.09841
   43.40000   46.64967   19.06402
   43.45000   44.59822   19.03300
   43.50000   42.71492   18.99511
   43.55000   41.02497   18.94286
   43.60000   39.85962   18.88736
   43.65000   38.70127   18.83534
   43.70000   37.68667   18.78914
   43.75000   37.05918   18.75239
   43.80000   36.53909   18.73324
   43.85000   35.87192   18.74399
   43.90000   35.36868   18.76750
   43.95000   35.13769   18.79763
   44.00000   35.22139   18.83701
   44.05000   35.08258   18.88758
   44.10000   35.21860   18.93969
   44.15000   35.15285   18.98113
   44.20000   35.10476   19.02104
   44.25000   35.25317   19.07381
   44.30000   35.41189   19.13799
   44.35000   35.79810   19.19330
   44.40000   36.20817   19.24593
   44.45000   36.50996   19.30381
   44.50000   37.47945   19.35942
   44.55000   38.20473   19.39594
   44.60000   39.39178   19.44657
   44.65000   40.59430   19.52156
   44.70000   41.56244   19.61441
   44.75000   42.07490   19.71219
   44.80000   42.53876   19.81759
   44.85000   43.04487   19.92903
   44.90000   43.72117   20.04655
   44.95000   43.78199   20.17155
   45.00000   43.69483   20.29191
   45.05000   43.85614   20.42331
   45.10000   43.53839   20.59442
   45.15000   43.33855   20.77251
   45.20000   42.89420   20.91631
   45.25000   42.47404   21.06640
   45.30000   41.72821   21.23439
   45.35000   40.95793   21.39775
   45.40000   40.37401   21.54409
   45.45000   39.81350   21.70851
   45.50000   39.10928   21.88092
   45.55000   38.49567   22.03956
   45.60000   38.12869   22.20675
   45.65000   37.58112   22.36080
   45.70000   37.28198   22.48021
   45.75000   36.57772   22.56288
   45.80000   36.04292   22.60653
   45.85000   35.74891   22.60503
   45.90000   35.99786   22.55253
   45.95000   36.82786   22.47774
   46.00000   37.65680   22.37877
   46.05000   38.31087   22.24265
   46.10000   39.10793   22.10126
   46.15000   39.44702   21.94471
   46.20000   39.39514   21.78881
   46.25000   39.21477   21.62118
   46.30000   39.07386   21.44697
   46.35000   39.04038   21.24072
   46.40000   38.92734   21.02851
   46.45000   38.67846   20.83426
   46.50000   38.13745   20.65475
   46.55000   37.70088   20.51936
   46.60000   37.41590   20.46471
   46.65000   37.07783   20.49588
   46.70000   36.79831   20.57030
   46.75000   37.49735   20.67950
   46.80000   38.72468   20.79700
   46.85000   39.85956   20.89794
   46.90000   41.14846   20.95957
   46.95000   42.52807   21.00643
   47.00000   44.08465   21.02139
   47.05000   45.52047   21.00195
   47.10000   46.76374   20.96854
   47.15000   47.68328   20.92065
   47.20000   48.23562   20.87074
   47.25000   48.34724   20.82044
   47.30000   48.28222   20.75863
   47.35000   47.70006   20.68167
   47.40000   46.30473   20.58959
   47.45000   45.32446   20.48634
   47.50000   44.17973   20.37165
   47.55000   42.60185   20.23851
   47.60000   41.49353   20.10615
   47.65000   40.17640   19.97562
   47.70000   38.68906   19.85308
   47.75000   37.32305   19.74055
   47.80000   36.18636   19.63512
   47.85000   35.70914   19.53928
   47.90000   35.80284   19.44105
   47.95000   35.63044   19.35660
   48.00000   35.69839   19.28428
   48.05000   35.58243   19.21985
   48.10000   35.66987   19.16468
   48.15000   35.79893   19.13072
   48.20000   36.01345   19.12147
   48.25000   35.95129   19.12121
   48.30000   35.86255   19.12875
   48.35000   35.87626   19.14190
   48.40000   35.94203   19.16279
   48.45000   35.91350   19.17133
   48.50000   35.67307   19.17296
   48.55000   35.94972   19.16635
   48.60000   35.90183   19.15580
