~Version ---------------------------------------------------
VERS.   2.0 : CWLS log ASCII Standard -VERSION 2.0
WRAP.    NO : One line per depth step
DLM . SPACE : Column Data Section Delimiter
~Well ------------------------------------------------------
STRT.m                      1.45 : START DEPTH
STOP.m                     166.6 : STOP DEPTH
STEP.m      0.050000000000000044 : STEP
NULL.                   -9999.25 : NULL VALUE
COMP.       Geoscience Australia : COMPANY
WELL.                    13BP01D : WELL
FLD .                            : FIELD
LOC .                            : LOCATION
PROV.                            : PROVINCE
CNTY.                            : COUNTY
STAT.                            : STATE
CTRY.                        AUS : COUNTRY
SRVC.                            : SERVICE COMPANY
DATE. 2019-05-28 16:13:54.403781 : DATE
UWI .                     627061 : UNIQUE WELL ID
API .                            : API NUMBER
X   .                   473886.6 : eastings (m)
Y   .                  8333260.7 : northings (m)
GDAT.                      GDA94 : geodetic datum
HZCS.                MGA zone 52 : Horizontal Co-ordinate System
PDAT.                         GL : Local Permanent Datum
LMF .    top of casing protector : Logging Measured From
APD .m                      0.73 : Elevation of Depth Reference (LMF) Above Permanent Datum
EPD .mAHD                  84.04 : Elevation of Permanent Datum (PDAT) above Mean Sea Level
~Curve Information -----------------------------------------
DEPT                          .m     : 
GR                            .API   : 
INDUCTION_BOREHOLE_COMPENSATED.mS/m  : 
~Params ----------------------------------------------------
~Other -----------------------------------------------------
Filtered  induction gamma logs for the East Kimberley EFtF project. Depth measurements are relative to a 
~ASCII -----------------------------------------------------
# ...
   13.25000   39.33723   15.00512
   13.30000   39.70943   14.96103
   13.35000   39.91209   14.98948
   13.40000   40.07077   15.07126
   13.45000   39.86193   15.19384
   13.50000   39.59135   15.38903
   13.55000   39.68132   15.63312
   13.60000   40.07146   15.88894
   13.65000   40.36868   16.12433
   13.70000   40.90380   16.33114
   13.75000   41.39205   16.49563
   13.80000   42.42343   16.57454
   13.85000   42.89199   16.59159
   13.90000   43.26943   16.56857
   13.95000   43.48774   16.51121
   14.00000   43.27935   16.43976
   14.05000   43.70543   16.36128
   14.10000   43.73336   16.28842
   14.15000   43.88907   16.22046
   14.20000   43.67929   16.14250
   14.25000   43.09413   16.03226
   14.30000   42.33886   15.89267
   14.35000   41.70574   15.71918
   14.40000   41.27492   15.51889
   14.45000   40.73985   15.29712
   14.50000   40.34404   15.07768
   14.55000   40.22044   14.86827
   14.60000   40.09876   14.68162
   14.65000   39.67363   14.52385
   14.70000   39.72994   14.38640
   14.75000   39.51342   14.26996
   14.80000   39.76993   14.18004
   14.85000   40.38175   14.11653
   14.90000   40.59803   14.04438
   14.95000   40.68847   13.98023
   15.00000   40.82218   13.94442
   15.05000   41.12805   13.93607
   15.10000   41.05483   13.93258
   15.15000   41.10070   13.93647
   15.20000   41.26177   13.96492
   15.25000   41.35860   14.00005
   15.30000   41.12688   14.01768
   15.35000   41.25124   14.01960
   15.40000   40.98650   14.02442
   15.45000   40.89761   14.04521
   15.50000   40.82606   14.06449
   15.55000   41.15366   14.07906
   15.60000   41.19779   14.09482
   15.65000   41.20884   14.10895
   15.70000   41.81884   14.11402
   15.75000   42.43537   14.09801
   15.80000   43.09094   14.08327
   15.85000   43.50105   14.07251
   15.90000   44.52477   14.07004
   15.95000   44.76096   14.07616
   16.00000   45.42915   14.08770
   16.05000   45.44589   14.11023
   16.10000   45.55489   14.13684
   16.15000   45.74328   14.16441
   16.20000   45.66309   14.18519
   16.25000   45.97770   14.20162
   16.30000   46.10320   14.21714
   16.35000   46.16673   14.22589
   16.40000   46.34200   14.22960
   16.45000   46.00733   14.23023
   16.50000   45.48970   14.22751
   16.55000   45.74071   14.22298
   16.60000   46.22801   14.21902
   16.65000   46.73621   14.21807
   16.70000   47.20371   14.22268
   16.75000   47.22933   14.23458
   16.80000   47.28648   14.26870
   16.85000   46.48455   14.31696
   16.90000   45.92071   14.36906
   16.95000   45.76275   14.42524
   17.00000   45.51282   14.48086
   17.05000   45.01858   14.53112
   17.10000   45.11554   14.56311
   17.15000   44.67934   14.58777
   17.20000   44.25538   14.61886
   17.25000   43.80796   14.65902
   17.30000   43.40274   14.71879
   17.35000   43.78206   14.78145
   17.40000   44.13790   14.84575
   17.45000   44.56404   14.91372
   17.50000   44.81934   14.97483
   17.55000   44.68224   15.02222
   17.60000   44.73806   15.05687
   17.65000   45.40511   15.09315
   17.70000   45.78145   15.12628
   17.75000   46.11574   15.14906
   17.80000   46.08386   15.16952
   17.85000   46.11461   15.18726
   17.90000   45.94211   15.19710
   17.95000   45.65066   15.21503
   18.00000   45.65576   15.23890
   18.05000   45.72996   15.26585
   18.10000   45.97180   15.28866
   18.15000   46.40442   15.31313
   18.20000   46.65418   15.34128
   18.25000   46.77586   15.35841
   18.30000   46.42267   15.37646
   18.35000   46.07913   15.39825
   18.40000   45.86339   15.42580
   18.45000   46.40786   15.46073
   18.50000   46.56001   15.49760
   18.55000   46.21693   15.54156
   18.60000   45.97051   15.59520
   18.65000   45.36726   15.69253
   18.70000   44.99232   15.84348
   18.75000   44.53916   16.03001
   18.80000   44.29552   16.28318
   18.85000   44.02320   16.56037
   18.90000   44.07618   16.82889
   18.95000   44.62402   17.06096
   19.00000   45.10429   17.23996
   19.05000   45.99434   17.35953
   19.10000   47.22943   17.39205
   19.15000   48.38994   17.38557
   19.20000   49.00507   17.36015
   19.25000   49.77937   17.31714
   19.30000   50.45166   17.27106
   19.35000   50.95464   17.23569
   19.40000   50.74494   17.21604
   19.45000   50.56804   17.18788
   19.50000   50.06112   17.15115
   19.55000   49.45705   17.04973
   19.60000   48.58075   16.88959
   19.65000   47.25480   16.70542
   19.70000   45.74665   16.49159
   19.75000   44.56769   16.27363
   19.80000   43.77439   16.06558
   19.85000   43.03060   15.92232
   19.90000   42.27931   15.82930
   19.95000   41.82351   15.75824
   20.00000   41.71515   15.72557
   20.05000   41.92138   15.73277
   20.10000   41.70710   15.80143
   20.15000   41.69968   15.92564
   20.20000   41.48445   16.15056
   20.25000   41.30276   16.44698
   20.30000   41.10481   16.75614
   20.35000   41.50195   17.04135
   20.40000   41.64434   17.27779
   20.45000   41.88820   17.46061
   20.50000   41.66564   17.53916
   20.55000   41.54868   17.56378
   20.60000   40.95046   17.58750
   20.65000   40.83000   17.64297
   20.70000   40.71510   17.74107
   20.75000   40.65713   17.87971
   20.80000   40.79994   18.10637
   20.85000   40.92061   18.36763
   20.90000   41.08282   18.62739
   20.95000   40.75470   18.84854
   21.00000   40.37083   19.01742
   21.05000   40.12948   19.11379
   21.10000   40.19916   19.06473
   21.15000   40.66758   18.94826
   21.20000   41.54362   18.79514
   21.25000   41.68388   18.61299
   21.30000   41.67275   18.42380
   21.35000   41.61141   18.26481
   21.40000   41.24589   18.15722
   21.45000   40.87722   18.07130
   21.50000   40.72139   18.00430
   21.55000   40.82746   17.91183
   21.60000   40.82382   17.80304
   21.65000   41.05574   17.64039
   21.70000   41.03152   17.40808
   21.75000   40.58022   17.13345
   21.80000   39.98774   16.85310
   21.85000   39.55509   16.58692
   21.90000   39.66050   16.33191
   21.95000   39.44763   16.11251
   22.00000   39.41850   15.95618
   22.05000   39.58658   15.83880
   22.10000   39.22192   15.73831
   22.15000   38.96728   15.67436
   22.20000   38.67699   15.62348
   22.25000   37.79699   15.60086
   22.30000   37.84212   15.58871
   22.35000   37.75822   15.58494
   22.40000   38.10959   15.59080
   22.45000   37.77728   15.60931
   22.50000   37.46353   15.64008
   22.55000   37.43476   15.68413
   22.60000   37.53178   15.75578
   22.65000   37.42181   15.86275
   22.70000   37.86645   16.00529
   22.75000   38.05244   16.18889
   22.80000   38.51137   16.38869
   22.85000   39.04930   16.59137
   22.90000   39.15165   16.78641
   22.95000   39.38868   16.97866
   23.00000   39.60885   17.16919
   23.05000   40.42098   17.33311
   23.10000   40.95323   17.53388
   23.15000   41.43412   17.73030
   23.20000   41.46356   17.90120
   23.25000   42.02546   18.03744
   23.30000   41.96829   18.15145
   23.35000   42.21247   18.24345
   23.40000   42.38006   18.27144
   23.45000   42.64695   18.28940
   23.50000   42.60472   18.30642
   23.55000   42.29272   18.30736
   23.60000   41.86590   18.26583
   23.65000   41.48604   18.21533
   23.70000   41.47434   18.17023
   23.75000   41.48021   18.12486
   23.80000   41.49604   18.07344
   23.85000   40.85973   18.00260
   23.90000   40.36400   17.92262
   23.95000   39.98845   17.81732
   24.00000   39.36637   17.69398
   24.05000   39.04306   17.57761
   24.10000   38.58034   17.47482
   24.15000   38.80287   17.39560
   24.20000   38.94359   17.33840
   24.25000   38.91718   17.29900
   24.30000   38.89786   17.26542
   24.35000   38.60315   17.21063
   24.40000   38.40207   17.14668
   24.45000   38.27951   17.08430
   24.50000   38.57369   17.02498
   24.55000   38.41462   16.96978
   24.60000   38.29607   16.91935
   24.65000   37.70825   16.87962
   24.70000   37.26341   16.83763
   24.75000   36.52844   16.79246
   24.80000   35.91685   16.73953
   24.85000   35.32017   16.67425
   24.90000   34.82853   16.60183
   24.95000   34.61352   16.52973
   25.00000   34.52326   16.46157
