#------------------------------------------------------------
~VERSION INFORMATION
VERS.               2.0  :CWLS LOG ASCII STANDARD - VERSION 2.0
WRAP.               YES  :MULTIPLE LINES PER DEPTH STEP
#------------------------------------------------------------
~WELL INFORMATION
STRT.M        0.4629000  :FIRST INDEX VALUE
STOP.M         166.9829  :LAST INDEX VALUE
STEP.M        0.0000000  :STEP
NULL.            -99999  :NULL VALUE
COMP.                    :COMPANY
WELL.                    :WELL
FLD.                     :FIELD
LOC.                     :LOCATION
SRVC.                    :
CTRY.                    :COUNTRY
STAT.                    :STATE
CNTY.                    :
DATE.                    :DATE
API.                     :
#------------------------------------------------------------
~CURVE INFORMATION
DEPT.M                   :DEPTH
SPEED.M/MIN              :Speed
TIME.SEC                 :Time
POSCOUNT.COUNT           :Poscount
NEGCOUNT.COUNT           :Negcount
POSDT.SEC                :Posdt
NEGDT.SEC                :Negdt
DEEP_INDUCTION.MS/M      :Deep Induction
MEDIUM_INDUCTION.MS/M    :Medium Induction
DEEP_RES.OHM-M           :Deep Res
MEDIUM_RES.OHM-M         :Medium Res
#------------------------------------------------------------
~PARAMETER INFORMATION
STE.                     :STE
TWP.                     :TWP
TYPE_FLUID_IN_HOLE.      :TYPE FLUID IN HOLE
CASING_FROM1.            :CASING FROM1
CASING_FROM2.            :CASING FROM2
CASING_FROM3.            :CASING FROM3
CASING_FROM4.            :CASING FROM4
BIT_TO3.                 :BIT TO3
CASING_FROM5.            :CASING FROM5
CASING_FROM6.            :CASING FROM6
BIT4.                    :BIT4
PERMANENT_DATUM.         :PERMANENT DATUM
BIT_TO2.                 :BIT TO2
K_B_.                    :K.B.
BIT5.                    :BIT5
BIT_TO1.                 :BIT TO1
TYPE_LOG.                :TYPE LOG
WELL_ID.                 :WELL ID
RUN1.                    :RUN1
RGE.                     :RGE
CO.                      :CO
ELEVATION.               :ELEVATION
TOP_LOGGED_INTERVAL.     :TOP LOGGED INTERVAL
RUN2.                    :RUN2
BTM_LOGGED_INTERVAL.     :BTM LOGGED INTERVAL
RUN3.                    :RUN3
BIT_TO6.                 :BIT TO6
WGT3.                    :WGT3
LOG_MEAS__FROM.          :LOG MEAS. FROM
RUN4.                    :RUN4
BIT_TO5.                 :BIT TO5
WGT2.                    :WGT2
D_F_.                    :D.F.
BIT_FROM2.               :BIT FROM2
RUN5.                    :RUN5
BIT_TO4.                 :BIT TO4
WGT1.                    :WGT1
BIT_FROM3.               :BIT FROM3
DEPTH-LOGGER.            :DEPTH-LOGGER
RUN6.                    :RUN6
RECORDED_BY.             :RECORDED BY
CTY.                     :CTY
MAX__REC__TEMP_.         :MAX. REC. TEMP.
BIT_FROM1.               :BIT FROM1
SEC.                     :SEC
CASING_TO1.              :CASING TO1
CASING_TO2.              :CASING TO2
CASING_TO3.              :CASING TO3
SALINITY.                :SALINITY
CASING_TO4.              :CASING TO4
CASING_TO5.              :CASING TO5
CASING_TO6.              :CASING TO6
WGT6.                    :WGT6
G_L_.                    :G.L.
BIT_FROM6.               :BIT FROM6
LEVEL.                   :LEVEL
WGT5.                    :WGT5
BIT2.                    :BIT2
DEPTH-DRILLER.           :DEPTH-DRILLER
DENSITY.                 :DENSITY
WITNESSED_BY.            :WITNESSED BY
WGT4.                    :WGT4
RUN_No.                  :RUN No
BIT3.                    :BIT3
BIT_FROM4.               :BIT FROM4
CASING_SIZE1.            :CASING SIZE1
CASING_SIZE2.            :CASING SIZE2
CASING_SIZE3.            :CASING SIZE3
CASING_SIZE4.            :CASING SIZE4
CASING_SIZE5.            :CASING SIZE5
CASING_SIZE6.            :CASING SIZE6
OTHER_SERVICES.          :OTHER SERVICES
BIT_FROM5.               :BIT FROM5
OPERATING_RIG_TIME.      :OPERATING RIG TIME
TITLE.                   :TITLE
BIT1.                    :BIT1
FILING_No.               :FILING No
DRILLING_MEAS__FROM.     :DRILLING MEAS. FROM
BIT6.                    :BIT6
#------------------------------------------------------------
~OTHER
#------------------------------------------------------------
~A
# ...
   1.022900
    -99999.00    -99999.00    -99999.00    -99999.00    -99999.00
    -99999.00     94.63461    -57.96367     10.62413    -17.25218
   1.032900
    -99999.00    -99999.00    -99999.00    -99999.00    -99999.00
    -99999.00     78.40566    -57.96367     12.93603    -17.25218
   1.042900
    -99999.00    -99999.00    -99999.00    -99999.00    -99999.00
    -99999.00     57.30921    -57.96367     18.22601    -17.25218
   1.052900
    -99999.00    -99999.00    -99999.00    -99999.00    -99999.00
    -99999.00     30.81963    -57.96367     42.04292    -17.25218
   1.062900
    -99999.00    -99999.00    -99999.00    -99999.00    -99999.00
    -99999.00   -0.9316368    -57.96367     3.845394    -17.25218
   1.072900
    -99999.00    -99999.00    -99999.00    -99999.00    -99999.00
    -99999.00    -36.85386    -57.96367    -36.68094    -17.25218
   1.082900
    -99999.00    -99999.00    -99999.00    -99999.00    -99999.00
    -99999.00    -73.98965    -57.96367    -14.38915    -17.25218
   1.092900
    0.7500000    0.8500000     540.5018     540.0000    0.8484281
    0.8484268    -103.7712    -57.96367    -9.756267    -17.25218
   1.102900
    0.7500000    0.8251024     523.5676     523.5676    0.8230949
    0.8230943    -116.3380    -57.96367    -8.596295    -17.25218
   1.112900
    0.7375566    0.8000000     507.0000     507.0000    0.7985181
    0.7985181    -117.3564    -57.96367    -8.521049    -17.25218
   1.122900
    0.7250000    0.8000000     505.5052     505.5052    0.7983614
    0.7983614    -117.3564    -57.96367    -8.521049    -17.25218
   1.132900
    0.7374517    0.8000000     504.0000     504.0000    0.7981302
    0.7981295    -117.3564    -57.96367    -8.521049    -17.25218
   1.142900
    0.7500000    0.8248927     518.4377     517.9399    0.8234075
    0.8234069    -117.3564    -57.96367    -8.521049    -17.25218
   1.152900
    0.7624601    0.8250799     517.0511     516.0511    0.8236131
    0.8236131    -117.3564    -57.96367    -8.521049    -17.25218
   1.162900
    0.7750000    0.7750905     486.0543     485.0543    0.7736805
    0.7736805    -117.3564    -57.96367    -8.521049    -17.25218
   1.172900
    0.7750000    0.7748986     483.9473     482.9473    0.7731547
    0.7731547    -117.3564    -57.96367    -8.521049    -17.25218
   1.182900
    0.7625369    0.7750739     476.5606     476.0592    0.7735258
    0.7735258    -117.3564    -57.96367    -8.521049    -17.25218
   1.192900
    0.5880497    0.7749155     471.4476     471.4476    0.7730141
    0.7730135    -117.3564    -57.96367    -8.521049    -17.25218
   1.202900
    0.4250000     39.87622     25185.46     25180.98     39.87451
     39.87451    -117.3564    -57.96367    -8.521049    -17.25218
   1.212900
    0.5370257     40.19037     25396.47     25391.95     40.18933
     40.18933    -117.3564    -57.96367    -8.521049    -17.25218
   1.222900
    0.6500000    0.8497674     542.8558     542.8558    0.8481718
    0.8481724    -117.3564    -57.96367    -8.521049    -17.25218
   1.232900
    0.6375444    0.9747334     623.8223     623.8223    0.9732600
    0.9732606    -117.3564    -57.96367    -8.521049    -17.25218
   1.242900
    0.9860581    0.7262927     466.8274     466.8274    0.7246423
    0.7246429    -117.3564    -57.96367    -8.521049    -17.25218
   1.252900
     1.362445    0.4248897     274.4272     274.4272    0.4227176
    0.4227183    -117.3564    -57.96367    -8.521049    -17.25218
   1.262900
     1.375000    0.4500000     291.4984     291.4984    0.4489397
    0.4489403    -117.3564    -57.96367    -8.521049    -17.25218
   1.272900
     1.375000    0.4500000     291.5019     291.5019    0.4484873
    0.4484885    -117.3564    -57.96367    -8.521049    -17.25218
   1.282900
     1.375000    0.4251043     275.5647     275.5647    0.4234926
    0.4234926    -117.3564    -57.96367    -8.521049    -17.25218
   1.292900
     1.375000    0.4249231     275.4523     275.4523    0.4237804
    0.4237798    -117.3564    -57.96367    -8.521049    -17.25218
   1.302900
     1.375000    0.4500000     291.4983     291.4983    0.4484321
    0.4484321    -117.3564    -57.96367    -8.521049    -17.25218
   1.312900
     1.462156    0.4250984     275.5649     275.5649    0.4230975
    0.4230969    -117.3564    -57.96367    -8.521049    -17.25218
   1.322900
     1.550000    0.4249290     275.4532     275.4532    0.4228819
    0.4228813    -117.3564    -57.96367    -8.521049    -17.25218
   1.332900
     1.550000    0.4500000     292.4984     292.4984    0.4486382
    0.4486382    -117.3564    -57.96367    -8.521049    -17.25218
   1.342900
     2.459148    0.4500000     293.4982     293.4982    0.4490285
    0.4490291    -117.3564    -57.96367    -8.521049    -17.25218
   1.352900
     3.375000    0.3504097     228.2704     228.2704    0.3490261
    0.3490261    -117.3564    -57.96367    -8.521049    -17.25218
   1.362900
     3.387443    0.2251133     146.5703     146.5703    0.2230254
    0.2230254    -117.3564    -57.96367    -8.521049    -17.25218
   1.372900
     3.400000    0.2000000     131.4983     131.4983    0.1986012
    0.1986018    -117.3564    -57.96367    -8.521049    -17.25218
   1.382900
     3.400000    0.1750965     114.5675     114.5675    0.1736794
    0.1736801    -117.3564    -57.96367    -8.521049    -17.25218
   1.392900
     3.400000    0.1748927     112.9313     112.9313    0.1730094
    0.1730101    -117.3564    -57.96367    -8.521049    -17.25218
   1.402900
     3.400000    0.1750799     113.0511     113.0511    0.1738364
    0.1738357    -117.3564    -57.96367    -8.521049    -17.25218
   1.412900
     3.400000    0.1749095     112.4439     112.4439    0.1733188
    0.1733176    -117.3564    -57.96367    -8.521049    -17.25218
   1.422900
     3.424899    0.1751014     112.0649     112.0649    0.1730387
    0.1730380    -117.3564    -57.96367    -8.521049    -17.25218
   1.432900
     3.450000    0.1749261     112.4512     112.4512    0.1739217
    0.1739217    -117.3564    -57.96367    -8.521049    -17.25218
   1.442900
     3.450000    0.1750846     112.0575     112.0575    0.1736147
    0.1736147    -117.3564    -57.96367    -8.521049    -17.25218
   1.452900
     3.450000    0.1749046     111.4370     111.4370    0.1731058
    0.1731051    -117.3564    -57.96367    -8.521049    -17.25218
   1.462900
     3.450000    0.1751054     111.5696     111.5696    0.1736750
    0.1736743    -117.3564    -57.96367    -8.521049    -17.25218
   1.472900
     3.450000    0.1748837     110.9256     110.9256    0.1734439
    0.1734439    -117.3564    -57.96367    -8.521049    -17.25218
   1.482900
     3.437545    0.1750889     110.5586     110.5586    0.1736268
    0.1736262    -117.3564    -57.96367    -8.521049    -17.25218
   1.492900
     3.425000    0.1749006     109.4383     109.4383    0.1731789
    0.1731783    -117.3564    -57.96367    -8.521049    -17.25218
   1.502900
     3.425000    0.1751103     109.0706     109.0706    0.1738688
    0.1738688    -117.3564    -57.96367    -8.521049    -17.25218
   1.512900
     3.425000    0.1749171     107.4519     107.4519    0.1734948
    0.1734942    -117.3564    -57.96367    -8.521049    -17.25218
   1.522900
     3.425000    0.1750935     106.0598     106.0598    0.1734944
    0.1734938    -117.3564    -57.96367    -8.521049    -17.25218
   1.532900
     3.425000    0.1748956     102.9457     102.9457    0.1724396
    0.1724396    -117.3564    -57.96367    -8.521049    -17.25218
   1.542900
     3.425000    0.1750769     101.0462     101.0462    0.1733773
    0.1733779    -117.3564    -56.50452    -8.521049    -17.69773
   1.552900
     3.425000    0.1749125     96.96149     96.96149    0.1739328
    0.1739328    -117.3564    -17.57517    -8.521049    -57.05154
   1.562900
     3.425000    0.1750984     91.56494     91.56494    0.1722251
    0.1722238    -117.3564     22.84962    -8.521049     43.54996
   1.572900
     3.425000    0.1749290     83.47587     83.47587    0.1719063
    0.1719056    -117.3564     56.03636    -8.521049     17.87887
