#------------------------------------------------------------
~VERSION INFORMATION
VERS.               2.0  :CWLS LOG ASCII STANDARD - VERSION 2.0
WRAP.               YES  :MULTIPLE LINES PER DEPTH STEP
#------------------------------------------------------------
~WELL INFORMATION
STRT.M        0.4629000  :FIRST INDEX VALUE
STOP.M         166.9829  :LAST INDEX VALUE
STEP.M        0.0000000  :STEP
NULL.            -99999  :NULL VALUE
COMP.                    :COMPANY
WELL.                    :WELL
FLD.                     :FIELD
LOC.                     :LOCATION
SRVC.                    :
CTRY.                    :COUNTRY
STAT.                    :STATE
CNTY.                    :
DATE.                    :DATE
API.                     :
#------------------------------------------------------------
~CURVE INFORMATION
DEPT.M                   :DEPTH
SPEED.M/MIN              :Speed
TIME.SEC                 :Time
POSCOUNT.COUNT           :Poscount
NEGCOUNT.COUNT           :Negcount
POSDT.SEC                :Posdt
NEGDT.SEC                :Negdt
DEEP_INDUCTION.MS/M      :Deep Induction
MEDIUM_INDUCTION.MS/M    :Medium Induction
DEEP_RES.OHM-M           :Deep Res
MEDIUM_RES.OHM-M         :Medium Res
#------------------------------------------------------------
~PARAMETER INFORMATION
STE.                     :STE
TWP.                     :TWP
TYPE_FLUID_IN_HOLE.      :TYPE FLUID IN HOLE
CASING_FROM1.            :CASING FROM1
CASING_FROM2.            :CASING FROM2
CASING_FROM3.            :CASING FROM3
CASING_FROM4.            :CASING FROM4
BIT_TO3.                 :BIT TO3
CASING_FROM5.            :CASING FROM5
CASING_FROM6.            :CASING FROM6
BIT4.                    :BIT4
PERMANENT_DATUM.         :PERMANENT DATUM
BIT_TO2.                 :BIT TO2
K_B_.                    :K.B.
BIT5.                    :BIT5
BIT_TO1.                 :BIT TO1
TYPE_LOG.                :TYPE LOG
WELL_ID.                 :WELL ID
RUN1.                    :RUN1
RGE.                     :RGE
CO.                      :CO
ELEVATION.               :ELEVATION
TOP_LOGGED_INTERVAL.     :TOP LOGGED INTERVAL
RUN2.                    :RUN2
BTM_LOGGED_INTERVAL.     :BTM LOGGED INTERVAL
RUN3.                    :RUN3
BIT_TO6.                 :BIT TO6
WGT3.                    :WGT3
LOG_MEAS__FROM.          :LOG MEAS. FROM
RUN4.                    :RUN4
BIT_TO5.                 :BIT TO5
WGT2.                    :WGT2
D_F_.                    :D.F.
BIT_FROM2.               :BIT FROM2
RUN5.                    :RUN5
BIT_TO4.                 :BIT TO4
WGT1.                    :WGT1
BIT_FROM3.               :BIT FROM3
DEPTH-LOGGER.            :DEPTH-LOGGER
RUN6.                    :RUN6
RECORDED_BY.             :RECORDED BY
CTY.                     :CTY
MAX__REC__TEMP_.         :MAX. REC. TEMP.
BIT_FROM1.               :BIT FROM1
SEC.                     :SEC
CASING_TO1.              :CASING TO1
CASING_TO2.              :CASING TO2
CASING_TO3.              :CASING TO3
SALINITY.                :SALINITY
CASING_TO4.              :CASING TO4
CASING_TO5.              :CASING TO5
CASING_TO6.              :CASING TO6
WGT6.                    :WGT6
G_L_.                    :G.L.
BIT_FROM6.               :BIT FROM6
LEVEL.                   :LEVEL
WGT5.                    :WGT5
BIT2.                    :BIT2
DEPTH-DRILLER.           :DEPTH-DRILLER
DENSITY.                 :DENSITY
WITNESSED_BY.            :WITNESSED BY
WGT4.                    :WGT4
RUN_No.                  :RUN No
BIT3.                    :BIT3
BIT_FROM4.               :BIT FROM4
CASING_SIZE1.            :CASING SIZE1
CASING_SIZE2.            :CASING SIZE2
CASING_SIZE3.            :CASING SIZE3
CASING_SIZE4.            :CASING SIZE4
CASING_SIZE5.            :CASING SIZE5
CASING_SIZE6.            :CASING SIZE6
OTHER_SERVICES.          :OTHER SERVICES
BIT_FROM5.               :BIT FROM5
OPERATING_RIG_TIME.      :OPERATING RIG TIME
TITLE.                   :TITLE
BIT1.                    :BIT1
FILING_No.               :FILING No
DRILLING_MEAS__FROM.     :DRILLING MEAS. FROM
BIT6.                    :BIT6
#------------------------------------------------------------
~OTHER
#------------------------------------------------------------
~A
# ...
   88.94290
     5.225000    0.1000000     28.49847     32.00000   0.09590220
   0.09666435     12.44534     4.873474     80.35490     205.1924
   88.95290
     5.212547    0.1249047     35.97330     40.46758    0.1219575
    0.1231244     12.41781     4.860174     80.53113     205.7540
   88.96290
     5.200000    0.1250954     36.02670     40.03432    0.1221549
    0.1218644     12.46638     4.859817     80.21577     205.7691
   88.97290
     5.200000    0.1000000     28.50191     31.99619   0.09591669
   0.09678583     12.47967     4.864101     80.13055     205.5878
   88.98289
     5.200000    0.1000000     28.49771     32.50229   0.09588641
   0.09824057     12.47974     4.876004     80.13013     205.0860
   88.99290
     5.200000    0.1249047     35.97330     39.96949    0.1219513
    0.1214810     12.46866     4.863833     80.20113     205.5992
   89.00290
     5.200000    0.1250954     36.02670     40.03051    0.1221443
    0.1217232     12.46558     4.838407     80.22102     206.6796
   89.01290
     5.200000    0.1000000     28.50153     32.00000   0.09590346
   0.09672621     12.50543     4.840547     79.96675     206.5882
   89.02290
     5.200000    0.1249047     35.47140     39.96949    0.1202028
    0.1215706     12.43847     4.844353     80.40344     206.4259
   89.03290
     5.200000    0.1250954     36.02670     40.03051    0.1221450
    0.1217264     12.31304     4.838942     81.21471     206.6568
   89.04290
     5.200000    0.1000000     29.00000     32.00000   0.09764190
   0.09668744     12.31967     4.828242     81.17104     207.1147
   89.05289
     5.200000    0.1248855     35.96794     39.96336    0.1219295
    0.1215507     12.29216     4.844353     81.35345     206.4259
   89.06290
     5.200000    0.1250954     35.52860     40.03051    0.1204115
    0.1217633     12.32841     4.838139     81.11645     206.6910
   89.07290
     5.200000    0.1000000     28.49809     32.00000   0.09589903
   0.09671560     12.51953     4.830916     79.88216     207.0001
   89.08290
     5.200000    0.1000000     29.00000     32.00000   0.09762689
   0.09672686     12.57287     4.833056     79.53841     206.9084
   89.09290
     5.200000    0.1249047     35.97330     39.96949    0.1219357
    0.1215948     12.41868     4.845185     80.52809     206.3905
   89.10290
     5.200000    0.1250954     35.52860     40.03051    0.1203959
    0.1217634     12.27402     4.844561     81.47452     206.4171
   89.11290
     5.200000    0.1000000     28.49809     32.49809   0.09589521
   0.09826895     12.34944     4.819387     80.98441     207.4952
   89.12289
     5.187557    0.1248855     35.96794     40.46565    0.1219320
    0.1230769     12.42733     4.844293     80.46934     206.4285
   89.13290
     5.175000    0.1250954     36.02670     40.03051    0.1221318
    0.1217174     12.35751     4.834929     80.92258     206.8283
   89.14290
     5.175000    0.1000000     29.00000     32.00000   0.09763502
   0.09672131     12.32400     4.830114     81.14266     207.0344
   89.15290
     5.175000    0.1249237     35.97863     39.97557    0.1219686
    0.1216062     12.32299     4.823963     81.14928     207.2984
   89.16290
     5.175000    0.1250954     35.52860     40.03051    0.1204029
    0.1217834     12.28843     4.801093     81.37878     208.2859
   89.17290
     5.175000    0.1000000     28.49809     32.00000   0.09589458
   0.09671562     12.27956     4.786814     81.43719     208.9072
   89.18290
     5.175000    0.1249047     35.97330     39.96949    0.1219638
    0.1215655     12.47410     4.794442     80.17801     208.5748
   89.19290
     5.175000    0.1250763     36.02137     40.02443    0.1221439
    0.1217355     12.41484     4.788684     80.57244     208.8256
   89.20290
     5.175000    0.1000000     28.50191     32.00000   0.09594350
   0.09669694     12.35603     4.767589     80.94501     209.7496
   89.21290
     5.187452    0.1000000     28.49809     32.00000   0.09593397
   0.09668374     12.52765     4.781206     79.82355     209.1523
   89.22290
     5.200000    0.1249047     35.97330     39.96949    0.1220063
    0.1215523     12.59710     4.778431     79.38486     209.2737
   89.23289
     5.200000    0.1251145     36.03206     40.03664    0.1221913
    0.1217743     12.58273     4.793225     79.47643     208.6278
   89.24290
     5.200000    0.1000000     28.50191     32.00000   0.09591599
   0.09672371     12.39261     4.780405     80.70090     209.1873
   89.25290
     5.200000    0.1249047     35.47140     39.96949    0.1202234
    0.1216017     12.28284     4.753978     81.41445     210.3501
   89.26290
     5.200000    0.1250763     36.02137     40.52290    0.1221414
    0.1233227     12.26465     4.764534     81.53563     209.8841
   89.27290
     5.200000    0.1000000     29.00000     32.50191   0.09766748
   0.09829219     12.26343     4.776399     81.54371     209.3627
   89.28290
     5.200000    0.1249047     35.97330     39.96949    0.1220037
    0.1215406     12.29951     4.761984     81.30408     209.9965
   89.29290
     5.200000    0.1250954     35.52860     40.03051    0.1204423
    0.1217325     12.31966     4.776162     81.17118     209.3732
   89.30289
     5.224885    0.1000000     28.49771     32.00000   0.09590884
   0.09667899     12.32567     4.777200     81.13153     209.3276
   89.31290
     5.250000    0.1249047     35.97330     39.96949    0.1219950
    0.1215390     12.33142     4.757061     81.09377     210.2138
   89.32290
     5.250000    0.1250954     36.02670     40.03051    0.1221912
    0.1217684     12.34233     4.759315     81.02197     210.1143
   89.33290
     5.250000    0.1000000     28.50153     32.00000   0.09594534
   0.09671184     12.33123     4.750776     81.09498     210.4919
   89.34290
     5.250000    0.1249047     35.47140     39.96949    0.1202664
    0.1215836     12.29535     4.741173     81.33193     210.9183
   89.35290
     5.250000    0.1250954     36.02670     40.03051    0.1222169
    0.1217789     12.26619     4.747809     81.52493     210.6235
   89.36290
     5.250000    0.1000000     29.00000     32.00000   0.09771123
   0.09672627     12.23411     4.741973     81.73917     210.8827
   89.37289
     5.250000    0.1000000     28.50229     32.00000   0.09597924
   0.09672498     12.16983     4.749176     82.17105     210.5629
   89.38290
     5.262453    0.1249047     35.47140     39.96949    0.1202983
    0.1216029     12.15496     4.741251     82.27116     210.9148
   89.39290
     5.275000    0.1250954     36.02670     40.03051    0.1222207
    0.1217940     12.17011     4.756380     82.16856     210.2439
   89.40290
     5.275000    0.1000000     29.00000     32.00000   0.09768499
   0.09673561     12.16430     4.758781     82.20776     210.1378
   89.41290
     5.275000    0.1249047     35.47521     39.96949    0.1203015
    0.1215849     12.19669     4.752377     81.99010     210.4210
   89.42290
     5.275000    0.1250954     35.52479     40.03051    0.1204809
    0.1217720     12.21361     4.762043     81.87601     209.9939
   89.43290
     5.275000    0.1000000     29.00000     32.00000   0.09770435
   0.09673749     12.18763     4.761183     82.05044     210.0318
   89.44290
     5.275000    0.1000000     29.00000     32.49847   0.09771810
   0.09828589     12.24331     4.743307     81.67955     210.8234
   89.45290
     5.275000    0.1249047     35.97330     40.47140    0.1220699
    0.1231582     12.26475     4.717238     81.53549     211.9885
   89.46290
     5.275000    0.1250954     35.52860     40.03051    0.1205030
    0.1217385     12.25506     4.703589     81.59956     212.6036
   89.47290
     5.262547    0.1000000     28.49809     32.00000   0.09596577
   0.09665990     12.31285     4.655114     81.21628     214.8175
   89.48289
     5.250000    0.1248855     35.96794     39.96336    0.1220581
    0.1216178     12.31149     4.622977     81.22529     216.3108
   89.49290
     5.250000    0.1250954     35.52860     40.03051    0.1205205
    0.1218479     12.27138     4.591108     81.49052     217.8123
