#------------------------------------------------------------
~VERSION INFORMATION
VERS.               2.0  :CWLS LOG ASCII STANDARD - VERSION 2.0
WRAP.               YES  :MULTIPLE LINES PER DEPTH STEP
#------------------------------------------------------------
~WELL INFORMATION
STRT.M        0.4629000  :FIRST INDEX VALUE
STOP.M         166.9829  :LAST INDEX VALUE
STEP.M        0.0000000  :STEP
NULL.            -99999  :NULL VALUE
COMP.                    :COMPANY
WELL.                    :WELL
FLD.                     :FIELD
LOC.                     :LOCATION
SRVC.                    :
CTRY.                    :COUNTRY
STAT.                    :STATE
CNTY.                    :
DATE.                    :DATE
API.                     :
#------------------------------------------------------------
~CURVE INFORMATION
DEPT.M                   :DEPTH
SPEED.M/MIN              :Speed
TIME.SEC                 :Time
POSCOUNT.COUNT           :Poscount
NEGCOUNT.COUNT           :Negcount
POSDT.SEC                :Posdt
NEGDT.SEC                :Negdt
DEEP_INDUCTION.MS/M      :Deep Induction
MEDIUM_INDUCTION.MS/M    :Medium Induction
DEEP_RES.OHM-M           :Deep Res
MEDIUM_RES.OHM-M         :Medium Res
#------------------------------------------------------------
~PARAMETER INFORMATION
STE.                     :STE
TWP.                     :TWP
TYPE_FLUID_IN_HOLE.      :TYPE FLUID IN HOLE
CASING_FROM1.            :CASING FROM1
CASING_FROM2.            :CASING FROM2
CASING_FROM3.            :CASING FROM3
CASING_FROM4.            :CASING FROM4
BIT_TO3.                 :BIT TO3
CASING_FROM5.            :CASING FROM5
CASING_FROM6.            :CASING FROM6
BIT4.                    :BIT4
PERMANENT_DATUM.         :PERMANENT DATUM
BIT_TO2.                 :BIT TO2
K_B_.                    :K.B.
BIT5.                    :BIT5
BIT_TO1.                 :BIT TO1
TYPE_LOG.                :TYPE LOG
WELL_ID.                 :WELL ID
RUN1.                    :RUN1
RGE.                     :RGE
CO.                      :CO
ELEVATION.               :ELEVATION
TOP_LOGGED_INTERVAL.     :TOP LOGGED INTERVAL
RUN2.                    :RUN2
BTM_LOGGED_INTERVAL.     :BTM LOGGED INTERVAL
RUN3.                    :RUN3
BIT_TO6.                 :BIT TO6
WGT3.                    :WGT3
LOG_MEAS__FROM.          :LOG MEAS. FROM
RUN4.                    :RUN4
BIT_TO5.                 :BIT TO5
WGT2.                    :WGT2
D_F_.                    :D.F.
BIT_FROM2.               :BIT FROM2
RUN5.                    :RUN5
BIT_TO4.                 :BIT TO4
WGT1.                    :WGT1
BIT_FROM3.               :BIT FROM3
DEPTH-LOGGER.            :DEPTH-LOGGER
RUN6.                    :RUN6
RECORDED_BY.             :RECORDED BY
CTY.                     :CTY
MAX__REC__TEMP_.         :MAX. REC. TEMP.
BIT_FROM1.               :BIT FROM1
SEC.                     :SEC
CASING_TO1.              :CASING TO1
CASING_TO2.              :CASING TO2
CASING_TO3.              :CASING TO3
SALINITY.                :SALINITY
CASING_TO4.              :CASING TO4
CASING_TO5.              :CASING TO5
CASING_TO6.              :CASING TO6
WGT6.                    :WGT6
G_L_.                    :G.L.
BIT_FROM6.               :BIT FROM6
LEVEL.                   :LEVEL
WGT5.                    :WGT5
BIT2.                    :BIT2
DEPTH-DRILLER.           :DEPTH-DRILLER
DENSITY.                 :DENSITY
WITNESSED_BY.            :WITNESSED BY
WGT4.                    :WGT4
RUN_No.                  :RUN No
BIT3.                    :BIT3
BIT_FROM4.               :BIT FROM4
CASING_SIZE1.            :CASING SIZE1
CASING_SIZE2.            :CASING SIZE2
CASING_SIZE3.            :CASING SIZE3
CASING_SIZE4.            :CASING SIZE4
CASING_SIZE5.            :CASING SIZE5
CASING_SIZE6.            :CASING SIZE6
OTHER_SERVICES.          :OTHER SERVICES
BIT_FROM5.               :BIT FROM5
OPERATING_RIG_TIME.      :OPERATING RIG TIME
TITLE.                   :TITLE
BIT1.                    :BIT1
FILING_No.               :FILING No
DRILLING_MEAS__FROM.     :DRILLING MEAS. FROM
BIT6.                    :BIT6
#------------------------------------------------------------
~OTHER
#------------------------------------------------------------
~A
# ...
   121.9829
     5.050000    0.1251145     35.03206     39.53435    0.1207138
    0.1224857     9.486330     3.544803     105.4149     282.1031
   121.9929
     5.050000    0.1000000     28.49809     31.50191   0.09754627
   0.09700692     9.445563     3.523857     105.8713     283.7800
   122.0029
     5.050000    0.1249047     35.47521     38.96949    0.1223264
    0.1208922     9.426424     3.518467     106.0851     284.2147
   122.0129
     5.062443    0.1251145     35.03206     39.53435    0.1207370
    0.1226950     9.578598     3.519265     104.4207     284.1503
   122.0229
     5.075000    0.1249047     34.97330     39.47140    0.1205140
    0.1225537     9.697205     3.514401     103.1229     284.5435
   122.0329
     5.075000    0.1250954     35.02670     39.03051    0.1206998
    0.1212096     9.735063     3.513681     102.7250     284.6018
   122.0429
     5.075000    0.1000000     28.49847     31.49847   0.09751338
   0.09714851     9.627875     3.517553     103.8958     284.2886
   122.0529
     5.075000    0.1249047     35.47521     39.47140    0.1222651
    0.1224969     9.444656     3.511288     105.8803     284.7957
   122.0629
     5.075000    0.1250954     35.02670     39.03051    0.1206928
    0.1211266     9.416103     3.497733     106.2012     285.8994
   122.0729
     5.075000    0.1249237     34.97863     38.97557    0.1205105
    0.1209858     9.420273     3.503372     106.1543     285.4393
   122.0829
     5.075000    0.1250762     35.51982     39.52287    0.1224197
    0.1227348     9.420428     3.500922     106.1526     285.6390
   122.0929
     5.025229    0.1000000     28.50229     31.50229   0.09753186
   0.09716103     9.412050     3.508098     106.2468     285.0547
   122.1029
     4.975000    0.1249047     34.97330     38.96949    0.1204897
    0.1208376     9.430968     3.501797     106.0338     285.5677
   122.1129
     4.975000    0.1250954     35.02670     39.52860    0.1206915
    0.1225970     9.444090     3.484981     105.8863     286.9456
   122.1229
     4.975000    0.1000000     28.49771     31.50229   0.09753815
   0.09711669     9.449470     3.505998     105.8261     285.2255
   122.1329
     4.975000    0.1249047     35.47521     38.96949    0.1222777
    0.1209009     9.429936     3.518467     106.0459     284.2147
   122.1429
     4.975000    0.1250954     35.02670     39.03051    0.1206741
    0.1211265     9.395613     3.495342     106.4328     286.0951
   122.1529
     4.975000    0.1000000     28.00000     31.49847   0.09575683
   0.09719566     9.360429     3.472933     106.8334     287.9410
   122.1629
     4.975000    0.1249047     35.47140     39.47140    0.1222667
    0.1226451     9.313404     3.467455     107.3728     288.3960
   122.1729
     4.975000    0.1250954     35.52860     39.03051    0.1224652
    0.1212578     9.290664     3.478704     107.6349     287.4634
   122.1829
     4.962539    0.1249237     34.97863     38.97557    0.1205279
    0.1210965     9.319558     3.477013     107.3023     287.6031
   122.1929
     4.950000    0.1251143     35.03201     39.53430    0.1207366
    0.1228675     9.313363     3.478607     107.3742     287.4714
   122.2029
     4.950000    0.1000000     28.00000     31.50229   0.09580685
   0.09724300     9.310814     3.461920     107.4034     288.8571
   122.2129
     4.950000    0.1249237     35.47710     38.97557    0.1223225
    0.1210758     9.307070     3.457900     107.4470     289.1929
   122.2229
     4.950000    0.1250762     35.52287     39.02439    0.1224904
    0.1212253     9.273378     3.478607     107.8356     287.4714
   122.2329
     4.950000    0.1248855     34.96794     39.46107    0.1205593
    0.1225915     9.266930     3.448813     107.9108     289.9548
   122.2429
     4.950000    0.1250954     35.02670     39.53242    0.1207729
    0.1228414     9.272559     3.427661     107.8454     291.7441
   122.2529
     4.950000    0.1249047     34.97330     38.96949    0.1205877
    0.1210659     9.291459     3.444096     107.6257     290.3519
   122.2629
     4.950000    0.1251145     35.52977     39.03664    0.1225781
    0.1212631     9.277168     3.440389     107.7919     290.6648
   122.2729
     4.950000    0.1000000     28.50191     31.49809   0.09763555
   0.09721392     9.227050     3.427661     108.3784     291.7441
   122.2829
     4.950000    0.1249047     34.97330     39.47140    0.1206121
    0.1226500     9.200623     3.426807     108.6884     291.8168
   122.2929
     4.950000    0.1250763     35.02137     39.02443    0.1208127
    0.1212273     9.230217     3.434024     108.3405     291.2035
   122.3029
     4.950000    0.1249047     34.97330     38.96949    0.1206857
    0.1210271     9.241316     3.436411     108.2099     291.0013
   122.3129
     4.950000    0.1250954     35.52479     39.52860    0.1226630
    0.1227757     9.231666     3.416857     108.3228     292.6666
   122.3229
     4.950000    0.1249237     35.48015     38.97863    0.1225245
    0.1211501     9.252186     3.415733     108.0830     292.7630
   122.3329
     4.950000    0.1250762     35.02134     39.02134    0.1209176
    0.1214655     9.295201     3.381274     107.5831     295.7466
   122.3429
     4.962443    0.1000000     28.00000     31.50229   0.09598625
   0.09732943     9.292163     3.379182     107.6185     295.9296
   122.3529
     4.975000    0.1249047     34.97330     38.96949    0.1207931
    0.1210318     9.234552     3.379976     108.2901     295.8601
   122.3629
     4.975000    0.1250954     35.02670     39.52860    0.1209974
    0.1228906     9.231294     3.391212     108.3281     294.8798
   122.3729
     4.975000    0.1248855     35.46565     39.46565    0.1225865
    0.1226979     9.231825     3.364891     108.3218     297.1865
   122.3829
     4.975000    0.1250954     35.52860     39.03051    0.1228261
    0.1213067     9.326488     3.360361     107.2399     297.5871
   122.3929
     4.975000    0.1000000     28.00000     31.00000   0.09604936
   0.09567190     9.385864     3.382358     106.5481     295.6517
   122.4029
     4.975000    0.1249237     34.97863     38.97557    0.1208684
    0.1210896     9.391097     3.381564     106.4897     295.7211
   122.4129
     4.975000    0.1250954     35.02670     39.52860    0.1210486
    0.1228555     9.373536     3.363497     106.6927     297.3096
   122.4229
     4.975000    0.1249047     34.97330     39.47140    0.1208962
    0.1228388     9.184796     3.393479     108.8887     294.6828
   122.4329
     4.962539    0.1250763     35.02137     39.02443    0.1210648
    0.1214869     8.874479     3.406387     112.7457     293.5662
   122.4429
     4.950000    0.1248857     34.96799     38.96341    0.1208480
    0.1212606     8.915745     3.414937     112.2520     292.8311
   122.4529
     4.950000    0.1251145     35.52977     39.03664    0.1228571
    0.1215257     9.220935     3.399557     108.4521     294.1559
   122.4629
     4.950000    0.1000000     28.50153     31.49847   0.09786670
   0.09747573     9.147855     3.377594     109.3354     296.0688
   122.4729
     4.950000    0.1249238     34.97866     38.97866    0.1209290
    0.1214229     9.128357     3.367272     109.5635     296.9763
   122.4829
     4.950000    0.1251145     35.03206     39.03206    0.1211291
    0.1214862     9.229786     3.367156     108.3449     296.9865
   122.4929
     4.950000    0.1249047     34.97330     39.47140    0.1209691
    0.1227392     9.228112     3.366478     108.3645     297.0463
   122.5029
     4.950000    0.1250954     35.02670     39.03051    0.1212082
    0.1214165     9.229786     3.362452     108.3449     297.4020
   122.5129
     4.987329    0.1000000     28.00000     31.00000   0.09618504
   0.09582634     9.257579     3.364891     108.0207     297.1865
   122.5229
     5.025000    0.1249047     34.97330     38.96949    0.1210099
    0.1212657     9.306293     3.376005     107.4546     296.2081
   122.5329
     5.025000    0.1250954     35.02670     39.52860    0.1212219
    0.1230831     9.241756     3.353568     108.2135     298.1899
