~Version ---------------------------------------------------
VERS.   2.0 : CWLS log ASCII Standard -VERSION 2.0
WRAP.    NO : One line per depth step
DLM . SPACE : Column Data Section Delimiter
~Well ------------------------------------------------------
STRT.m                      1.45 : START DEPTH
STOP.m                     166.6 : STOP DEPTH
STEP.m      0.050000000000000044 : STEP
NULL.                   -9999.25 : NULL VALUE
COMP.       Geoscience Australia : COMPANY
WELL.                    13BP01D : WELL
FLD .                            : FIELD
LOC .                            : LOCATION
PROV.                            : PROVINCE
CNTY.                            : COUNTY
STAT.                            : STATE
CTRY.                        AUS : COUNTRY
SRVC.                            : SERVICE COMPANY
DATE. 2019-05-28 16:13:54.403781 : DATE
UWI .                     627061 : UNIQUE WELL ID
API .                            : API NUMBER
X   .                   473886.6 : eastings (m)
Y   .                  8333260.7 : northings (m)
GDAT.                      GDA94 : geodetic datum
HZCS.                MGA zone 52 : Horizontal Co-ordinate System
PDAT.                         GL : Local Permanent Datum
LMF .    top of casing protector : Logging Measured From
APD .m                      0.73 : Elevation of Depth Reference (LMF) Above Permanent Datum
EPD .mAHD                  84.04 : Elevation of Permanent Datum (PDAT) above Mean Sea Level
~Curve Information -----------------------------------------
DEPT                          .m     : 
GR                            .API   : 
INDUCTION_BOREHOLE_COMPENSATED.mS/m  : 
~Params ----------------------------------------------------
~Other -----------------------------------------------------
Filtered  induction gamma logs for the East Kimberley EFtF project. Depth measurements are relative to a 
~ASCII -----------------------------------------------------
# ...
  143.05000  143.98053   55.92025
  143.10000  135.86465   55.25251
  143.15000  128.31464   54.61716
  143.20000  121.44927   54.04681
  143.25000  115.61090   53.61443
  143.30000  111.56398   53.32808
  143.35000  110.18966   53.14422
  143.40000  111.31348   53.03745
  143.45000  113.31578   53.07222
  143.50000  116.70099   53.36721
  143.55000  121.40065   53.90936
  143.60000  125.80986   54.64077
  143.65000  129.55756   55.51586
  143.70000  134.33046   56.64704
  143.75000  138.21281   58.35118
  143.80000  141.83324   60.51570
  143.85000  146.50151   62.73795
  143.90000  151.88805   64.83485
  143.95000  156.89216   66.87465
  144.00000  161.79560   68.61058
  144.05000  167.07686   69.71007
  144.10000  171.35092   70.29187
  144.15000  174.46745   70.70275
  144.20000  176.56789   71.08279
  144.25000  178.73926   71.40681
  144.30000  179.47777   71.66095
  144.35000  179.50938   71.68018
  144.40000  178.26064   71.55267
  144.45000  174.81112   71.41052
  144.50000  170.76149   71.12749
  144.55000  166.07258   70.69693
  144.60000  160.37451   70.24850
  144.65000  155.66154   69.84606
  144.70000  152.27849   69.45446
  144.75000  148.54814   69.05538
  144.80000  145.75120   68.77169
  144.85000  144.07800   68.56392
  144.90000  142.71086   68.37665
  144.95000  141.51084   68.23265
  145.00000  141.16763   68.11181
  145.05000  141.69565   67.82453
  145.10000  141.39078   67.38319
  145.15000  141.53067   66.85644
  145.20000  141.04758   66.23248
  145.25000  139.48991   65.51959
  145.30000  137.94763   64.62345
  145.35000  136.51504   63.63807
  145.40000  134.34756   62.53292
  145.45000  130.55965   61.33801
  145.50000  127.03120   60.05424
  145.55000  123.73439   58.81219
  145.60000  120.44281   57.74689
  145.65000  116.83895   56.85888
  145.70000  114.93617   56.08936
  145.75000  114.29252   55.39945
  145.80000  114.58429   54.80243
  145.85000  114.69401   54.15841
  145.90000  114.83669   53.46026
  145.95000  115.88938   52.75447
  146.00000  117.31638   52.11231
  146.05000  119.52143   51.50804
  146.10000  122.24586   50.88851
  146.15000  124.61823   50.30750
  146.20000  125.66188   49.76725
  146.25000  125.44345   49.25918
  146.30000  123.19364   48.73819
  146.35000  119.65049   48.22328
  146.40000  115.88758   47.75840
  146.45000  111.53989   47.34502
  146.50000  107.38501   47.01779
  146.55000  104.28775   46.74359
  146.60000  101.28916   46.50220
  146.65000   98.46148   46.27061
  146.70000   95.00396   46.03711
  146.75000   91.68309   45.80360
  146.80000   89.70609   45.56788
  146.85000   88.55923   45.36267
  146.90000   88.88202   45.21667
  146.95000   90.01175   45.16406
  147.00000   91.86185   45.21629
  147.05000   94.07774   45.34187
  147.10000   95.04100   45.64365
  147.15000   95.90010   46.06882
  147.20000   98.24861   46.59857
  147.25000  100.65957   47.20587
  147.30000  104.12760   47.79799
  147.35000  107.63659   48.43620
  147.40000  111.23718   48.97368
  147.45000  114.29889   49.51381
  147.50000  116.48352   50.05271
  147.55000  119.01004   50.58093
  147.60000  120.16165   51.12752
  147.65000  121.47196   51.65799
  147.70000  122.94504   52.24282
  147.75000  123.54310   52.75868
  147.80000  122.47992   53.17696
  147.85000  121.48763   53.52794
  147.90000  120.34985   53.82799
  147.95000  118.54918   54.03165
  148.00000  116.54730   54.15789
  148.05000  114.15818   54.31809
  148.10000  112.65116   54.54811
  148.15000  111.01414   54.82152
  148.20000  110.31274   55.09653
  148.25000  110.67500   55.38342
  148.30000  110.88349   55.69761
  148.35000  110.84780   55.99690
  148.40000  111.77657   56.23858
  148.45000  112.05845   56.44205
  148.50000  112.00722   56.62107
  148.55000  112.27541   56.75906
  148.60000  113.61630   56.80405
  148.65000  115.29037   56.79294
  148.70000  116.71005   56.76701
  148.75000  117.42549   56.73744
  148.80000  118.47328   56.72575
  148.85000  119.54882   56.72779
  148.90000  120.40153   56.74652
  148.95000  121.56079   56.76724
  149.00000  122.16768   56.79217
  149.05000  122.92539   56.82654
  149.10000  124.75039   56.90823
  149.15000  127.41233   57.08111
  149.20000  130.22152   57.27924
  149.25000  132.29397   57.51160
  149.30000  134.61676   57.83512
  149.35000  136.72609   58.26057
  149.40000  138.84675   58.67876
  149.45000  140.67373   59.06277
  149.50000  142.42369   59.44387
  149.55000  144.98389   59.78026
  149.60000  146.69047   60.00352
  149.65000  148.67298   60.08125
  149.70000  150.22172   60.07129
  149.75000  151.21433   59.93611
  149.80000  152.14046   59.65695
  149.85000  153.31189   59.23578
  149.90000  153.72851   58.53589
  149.95000  153.81849   57.54593
  150.00000  152.49821   56.21550
  150.05000  150.40396   54.66572
  150.10000  148.20465   52.85308
  150.15000  145.22395   50.94219
  150.20000  141.57926   48.96960
  150.25000  138.64624   46.96887
  150.30000  135.63523   45.10177
  150.35000  132.41346   43.27574
  150.40000  128.23565   41.57858
  150.45000  123.82399   39.96080
  150.50000  119.18633   38.53360
  150.55000  115.86133   37.32272
  150.60000  113.50530   36.25166
  150.65000  112.66569   35.37068
  150.70000  113.33237   34.71291
  150.75000  115.13931   34.23046
  150.80000  117.82484   33.95334
  150.85000  120.33370   33.84671
  150.90000  122.87845   33.94401
  150.95000  126.41162   34.19298
  151.00000  131.39621   34.46695
  151.05000  137.16171   34.74105
  151.10000  143.13671   34.98668
  151.15000  147.83592   35.10120
  151.20000  152.47673   35.02020
  151.25000  155.75634   34.76747
  151.30000  157.10984   34.34629
  151.35000  157.26241   33.82229
  151.40000  155.78894   33.24459
  151.45000  152.48594   32.68112
  151.50000  148.09278   32.13674
  151.55000  141.75662   31.59884
  151.60000  134.09078   31.06056
  151.65000  125.61592   30.44489
  151.70000  117.36138   29.74682
  151.75000  109.06144   28.91147
  151.80000   99.92436   27.97116
  151.85000   91.40186   26.98588
  151.90000   83.28514   25.92507
  151.95000   76.18993   24.79999
  152.00000   70.67289   23.65504
  152.05000   66.46412   22.61604
  152.10000   62.79440   21.67712
  152.15000   60.31843   20.82000
  152.20000   58.37245   20.14037
  152.25000   56.64231   19.63804
  152.30000   55.54558   19.21377
  152.35000   54.44337   18.82958
  152.40000   53.56383   18.50655
  152.45000   52.43550   18.25175
  152.50000   51.87488   18.01907
  152.55000   50.82548   17.79907
  152.60000   49.35213   17.62009
  152.65000   48.36837   17.46335
  152.70000   47.53641   17.32396
  152.75000   46.38703   17.20535
  152.80000   45.66039   17.11657
  152.85000   44.89180   17.04055
  152.90000   44.38870   16.98401
  152.95000   44.36423   16.93542
  153.00000   44.02520   16.89013
  153.05000   43.86286   16.85275
  153.10000   43.80624   16.82588
  153.15000   43.80264   16.81189
  153.20000   43.76018   16.80931
  153.25000   43.86738   16.81845
  153.30000   43.95589   16.83462
  153.35000   44.73586   16.85464
  153.40000   45.63760   16.87860
  153.45000   46.43218   16.90298
  153.50000   47.23804   16.92179
  153.55000   47.93864   16.93280
  153.60000   48.52128   16.94026
  153.65000   49.04311   16.94293
  153.70000   49.19120   16.94122
  153.75000   49.43837   16.93548
  153.80000   49.57283   16.92840
  153.85000   49.87651   16.91984
  153.90000   49.57377   16.90923
  153.95000   49.33698   16.89627
  154.00000   49.39646   16.88478
  154.05000   49.95174   16.87184
  154.10000   50.26015   16.85482
  154.15000   50.41196   16.83778
  154.20000   50.91129   16.82227
  154.25000   51.38926   16.80583
  154.30000   51.30397   16.78979
  154.35000   51.21537   16.77113
  154.40000   50.65676   16.74323
  154.45000   49.94014   16.71140
  154.50000   49.61330   16.67333
  154.55000   49.37696   16.63075
  154.60000   48.01990   16.57958
  154.65000   46.55193   16.53412
  154.70000   45.82501   16.50597
  154.75000   44.94726   16.48105
  154.80000   44.17063   16.46102
