#------------------------------------------------------------
~VERSION INFORMATION
VERS.               2.0  :CWLS LOG ASCII STANDARD - VERSION 2.0
WRAP.               YES  :MULTIPLE LINES PER DEPTH STEP
#------------------------------------------------------------
~WELL INFORMATION
STRT.M        0.4629000  :FIRST INDEX VALUE
STOP.M         166.9829  :LAST INDEX VALUE
STEP.M        0.0000000  :STEP
NULL.            -99999  :NULL VALUE
COMP.                    :COMPANY
WELL.                    :WELL
FLD.                     :FIELD
LOC.                     :LOCATION
SRVC.                    :
CTRY.                    :COUNTRY
STAT.                    :STATE
CNTY.                    :
DATE.                    :DATE
API.                     :
#------------------------------------------------------------
~CURVE INFORMATION
DEPT.M                   :DEPTH
SPEED.M/MIN              :Speed
TIME.SEC                 :Time
POSCOUNT.COUNT           :Poscount
NEGCOUNT.COUNT           :Negcount
POSDT.SEC                :Posdt
NEGDT.SEC                :Negdt
DEEP_INDUCTION.MS/M      :Deep Induction
MEDIUM_INDUCTION.MS/M    :Medium Induction
DEEP_RES.OHM-M           :Deep Res
MEDIUM_RES.OHM-M         :Medium Res
#------------------------------------------------------------
~PARAMETER INFORMATION
STE.                     :STE
TWP.                     :TWP
TYPE_FLUID_IN_HOLE.      :TYPE FLUID IN HOLE
CASING_FROM1.            :CASING FROM1
CASING_FROM2.            :CASING FROM2
CASING_FROM3.            :CASING FROM3
CASING_FROM4.            :CASING FROM4
BIT_TO3.                 :BIT TO3
CASING_FROM5.            :CASING FROM5
CASING_FROM6.            :CASING FROM6
BIT4.                    :BIT4
PERMANENT_DATUM.         :PERMANENT DATUM
BIT_TO2.                 :BIT TO2
K_B_.                    :K.B.
BIT5.                    :BIT5
BIT_TO1.                 :BIT TO1
TYPE_LOG.                :TYPE LOG
WELL_ID.                 :WELL ID
RUN1.                    :RUN1
RGE.                     :RGE
CO.                      :CO
ELEVATION.               :ELEVATION
TOP_LOGGED_INTERVAL.     :TOP LOGGED INTERVAL
RUN2.                    :RUN2
BTM_LOGGED_INTERVAL.     :BTM LOGGED INTERVAL
RUN3.                    :RUN3
BIT_TO6.                 :BIT TO6
WGT3.                    :WGT3
LOG_MEAS__FROM.          :LOG MEAS. FROM
RUN4.                    :RUN4
BIT_TO5.                 :BIT TO5
WGT2.                    :WGT2
D_F_.                    :D.F.
BIT_FROM2.               :BIT FROM2
RUN5.                    :RUN5
BIT_TO4.                 :BIT TO4
WGT1.                    :WGT1
BIT_FROM3.               :BIT FROM3
DEPTH-LOGGER.            :DEPTH-LOGGER
RUN6.                    :RUN6
RECORDED_BY.             :RECORDED BY
CTY.                     :CTY
MAX__REC__TEMP_.         :MAX. REC. TEMP.
BIT_FROM1.               :BIT FROM1
SEC.                     :SEC
CASING_TO1.              :CASING TO1
CASING_TO2.              :CASING TO2
CASING_TO3.              :CASING TO3
SALINITY.                :SALINITY
CASING_TO4.              :CASING TO4
CASING_TO5.              :CASING TO5
CASING_TO6.              :CASING TO6
WGT6.                    :WGT6
G_L_.                    :G.L.
BIT_FROM6.               :BIT FROM6
LEVEL.                   :LEVEL
WGT5.                    :WGT5
BIT2.                    :BIT2
DEPTH-DRILLER.           :DEPTH-DRILLER
DENSITY.                 :DENSITY
WITNESSED_BY.            :WITNESSED BY
WGT4.                    :WGT4
RUN_No.                  :RUN No
BIT3.                    :BIT3
BIT_FROM4.               :BIT FROM4
CASING_SIZE1.            :CASING SIZE1
CASING_SIZE2.            :CASING SIZE2
CASING_SIZE3.            :CASING SIZE3
CASING_SIZE4.            :CASING SIZE4
CASING_SIZE5.            :CASING SIZE5
CASING_SIZE6.            :CASING SIZE6
OTHER_SERVICES.          :OTHER SERVICES
BIT_FROM5.               :BIT FROM5
OPERATING_RIG_TIME.      :OPERATING RIG TIME
TITLE.                   :TITLE
BIT1.                    :BIT1
FILING_No.               :FILING No
DRILLING_MEAS__FROM.     :DRILLING MEAS. FROM
BIT6.                    :BIT6
#------------------------------------------------------------
~OTHER
#------------------------------------------------------------
~A
# ...
   12.22290
     5.025000    0.1000000     29.49761     33.00000   0.09614929
   0.09802485     9.744698     3.983484     102.6293     251.0366
   12.23290
     5.025000    0.1249094     37.47281     40.97099    0.1231624
    0.1225116     9.705720     3.898340     103.0353     256.5198
   12.24290
     5.025000    0.1251000     37.03201     40.53401    0.1217349
    0.1212266     9.733377     3.856237     102.7401     259.3202
   12.25290
     5.012555    0.1000000     29.49780     32.49781   0.09632562
   0.09670107     9.565449     3.781973     104.5655     264.4124
   12.26290
     5.000000    0.1249141     36.97595     40.47424    0.1216953
    0.1214285     9.523200     3.734727     105.0182     267.7573
   12.27290
     5.000000    0.1250953     37.02668     40.52858    0.1219589
    0.1217727     9.599921     3.680421     104.1681     271.7082
   12.28290
     5.000000    0.1248950     36.97061     40.96641    0.1218834
    0.1232980     9.481839     3.600050     105.4753     277.7741
   12.29290
     5.000000    0.1250763     36.52290     40.52596    0.1204082
    0.1219215     9.389658     3.561662     106.5002     280.7679
   12.30290
     5.000000    0.1000000     29.49819     32.00000   0.09664436
   0.09558798     9.352727     3.510817     106.9227     284.8341
   12.31290
     5.000000    0.1248998     36.97195     40.46593    0.1221033
    0.1219522     9.322837     3.446040     107.2636     290.1883
   12.32290
     5.000000    0.1250716     36.52147     40.52433    0.1206460
    0.1222647     9.240221     3.405488     108.2337     293.6438
   12.33290
     5.000000    0.1249190     36.97408     40.47247    0.1222662
    0.1221671     9.097064     3.358347     109.9288     297.7656
   12.34290
     5.000000    0.1250954     37.03053     40.53244    0.1225374
    0.1225243     9.042589     3.318203     110.5878     301.3681
   12.35290
     5.000000    0.1000000     29.00000     32.00000   0.09530431
   0.09622690     9.010043     3.313351     110.9883     301.8093
   12.36290
     5.000000    0.1248855     36.46565     39.96336    0.1207611
    0.1209537     8.836051     3.264227     113.2042     306.3513
   12.37290
     5.000000    0.1250859     37.02405     40.52576    0.1227068
    0.1227586     8.746734     3.207483     114.3336     311.7712
   12.38290
     5.000000    0.1249000     36.97199     40.46999    0.1226268
    0.1227190     8.825167     3.180117     113.3129     314.4539
   12.39290
     5.000000    0.1251097     36.53292     40.03511    0.1211965
    0.1214714     8.750471     3.138777     114.2929     318.5956
   12.40290
     5.000000    0.1000000     29.00000     32.00000   0.09554996
   0.09650450     8.601066     3.091593     116.2694     323.4580
   12.41290
     5.000000    0.1249095     36.47285     39.97104    0.1211464
    0.1214891     8.547761     3.084198     116.9897     324.2334
   12.42290
     5.000000    0.1251002     36.53006     40.03206    0.1214338
    0.1218662     8.484609     3.038818     117.8674     329.0753
   12.43290
     5.000000    0.1249237     36.47710     39.97557    0.1213591
    0.1217369     8.423948     2.995754     118.7092     333.8059
   12.44290
     5.000000    0.1250858     36.52572     40.02744    0.1215817
    0.1219200     8.434258     2.968344     118.5641     336.8882
   12.45290
     5.000000    0.1000000     29.49809     32.00000   0.09760393
   0.09690616     8.356713     2.979192     119.6762     335.6615
   12.46290
     5.000000    0.1248952     36.47275     39.96646    0.1215970
    0.1218893     8.258970     2.959073     121.0808     337.9437
   12.47290
     5.000000    0.1251193     36.53101     40.03817    0.1218712
    0.1221973     8.227336     2.921955     121.5466     342.2367
   12.48290
     5.000000    0.1249094     36.47643     39.97099    0.1217752
    0.1221619     8.241025     2.871351     121.3459     348.2685
   12.49290
     5.000000    0.1251000     36.02801     40.03201    0.1202886
    0.1223905     8.297590     2.851081     120.5180     350.7442
   12.50290
     4.987555    0.1000000     29.00000     32.00000   0.09619807
   0.09722726     8.199404     2.842672     121.9879     351.7817
   12.51290
     4.975000    0.1249141     36.47424     39.47424    0.1219600
    0.1207273     8.069457     2.805777     123.9241     356.4077
   12.52290
     4.975000    0.1250953     36.52858     39.52858    0.1222201
    0.1208822     8.051944     2.786305     124.1939     358.8983
   12.53290
     4.975000    0.1248950     36.46851     39.96641    0.1221145
    0.1223971     8.050220     2.762637     124.2204     361.9730
   12.54290
     4.975000    0.1250763     36.52290     40.02443    0.1223812
    0.1227061     8.023512     2.717851     124.6364     367.9380
   12.55290
     4.975000    0.1000000     29.00000     32.00000   0.09655423
   0.09750562     8.047570     2.674535     124.2684     373.8969
   12.56290
     4.975000    0.1248998     35.97195     39.46994    0.1207186
    0.1212401     7.932741     2.659523     126.1233     376.0073
   12.57290
     4.975000    0.1250716     36.02004     39.52147    0.1209672
    0.1214686     7.767498     2.657946     128.7420     376.2304
   12.58290
     4.999919    0.1249190     35.97733     39.47570    0.1209514
    0.1212358     7.745487     2.643962     129.1102     378.2202
   12.59290
     5.025000    0.1250954     36.02672     39.52863    0.1212241
    0.1215504     7.697899     2.621781     129.9059     381.4202
   12.60290
     5.025000    0.1000000     29.00000     32.00000   0.09699984
   0.09789889     7.703104     2.568084     129.8184     389.3957
   12.61290
     5.025000    0.1248855     35.96794     39.46565    0.1212380
    0.1214415     7.754815     2.532617     128.9548     394.8486
   12.62290
     5.025000    0.1250859     36.02405     39.52576    0.1215107
    0.1217429     7.741541     2.564197     129.1783     389.9858
   12.63290
     5.025000    0.1249000     35.97199     39.46999    0.1214637
    0.1217088     7.598252     2.562057     131.6298     390.3114
   12.64290
     5.025000    0.1251097     36.03072     39.53292    0.1217541
    0.1219359     7.557302     2.549607     132.3293     392.2174
   12.65290
     5.025000    0.1000000     29.00000     31.50162   0.09739990
   0.09658134     7.626768     2.527683     131.1176     395.6193
   12.66290
     5.025000    0.1249095     35.97466     39.46923    0.1217958
    0.1218774     7.649558     2.504072     130.7267     399.3496
   12.67290
     5.037450    0.1251002     36.02805     39.53407    0.1220969
    0.1222026     7.659237     2.507830     130.5613     398.7512
   12.68290
     5.050000    0.1249237     35.97863     39.47404    0.1220783
    0.1221208     7.531172     2.478644     132.8212     403.4466
   12.69290
     5.050000    0.1250858     35.52572     39.52915    0.1205890
    0.1223248     7.370184     2.470082     135.6841     404.8448
   12.70290
     5.050000    0.1000000     28.49809     31.49809   0.09612074
   0.09689579     7.413162     2.482037     134.9085     402.8949
   12.71290
     5.050000    0.1248952     35.97066     39.46856    0.1223427
    0.1222276     7.497041     2.474885     133.3862     404.0591
   12.72290
     5.050000    0.1251193     35.53578     39.03817    0.1209094
    0.1209838     7.471628     2.492178     133.8427     401.2554
   12.73290
     5.050000    0.1249094     35.47281     38.97099    0.1208052
    0.1208766     7.415489     2.469385     134.8539     404.9592
   12.74290
     5.050000    0.1251000     35.53001     39.53001    0.1210856
    0.1226297     7.399344     2.457022     135.1472     406.9968
   12.75290
     5.050000    0.1000000     28.49780     31.50220   0.09653022
   0.09713004     7.426494     2.460979     134.6543     406.3424
   12.76290
     5.050000    0.1249141     35.97595     38.97252    0.1228954
    0.1210465     7.429892     2.473239     134.5924     404.3281
   12.77290
     5.050000    0.1250953     35.52858     39.03049    0.1214072
    0.1212605     7.391204     2.461248     135.2969     406.2979
