~Version ---------------------------------------------------
VERS.   2.0 : CWLS log ASCII Standard -VERSION 2.0
WRAP.    NO : One line per depth step
DLM . SPACE : Column Data Section Delimiter
~Well ------------------------------------------------------
STRT.m                      1.45 : START DEPTH
STOP.m                     166.6 : STOP DEPTH
STEP.m      0.050000000000000044 : STEP
NULL.                   -9999.25 : NULL VALUE
COMP.       Geoscience Australia : COMPANY
WELL.                    13BP01D : WELL
FLD .                            : FIELD
LOC .                            : LOCATION
PROV.                            : PROVINCE
CNTY.                            : COUNTY
STAT.                            : STATE
CTRY.                        AUS : COUNTRY
SRVC.                            : SERVICE COMPANY
DATE. 2019-05-28 16:13:54.403781 : DATE
UWI .                     627061 : UNIQUE WELL ID
API .                            : API NUMBER
X   .                   473886.6 : eastings (m)
Y   .                  8333260.7 : northings (m)
GDAT.                      GDA94 : geodetic datum
HZCS.                MGA zone 52 : Horizontal Co-ordinate System
PDAT.                         GL : Local Permanent Datum
LMF .    top of casing protector : Logging Measured From
APD .m                      0.73 : Elevation of Depth Reference (LMF) Above Permanent Datum
EPD .mAHD                  84.04 : Elevation of Permanent Datum (PDAT) above Mean Sea Level
~Curve Information -----------------------------------------
DEPT                          .m     : 
GR                            .API   : 
INDUCTION_BOREHOLE_COMPENSATED.mS/m  : 
~Params ----------------------------------------------------
~Other -----------------------------------------------------
Filtered  induction gamma logs for the East Kimberley EFtF project. Depth measurements are relative to a 
~ASCII -----------------------------------------------------
# ...
  154.85000   44.41924   16.44949
  154.90000   45.00025   16.44920
  154.95000   45.35069   16.44866
  155.00000   45.95279   16.44214
  155.05000   46.36128   16.43307
  155.10000   46.87741   16.42331
  155.15000   47.50405   16.41519
  155.20000   48.08075   16.40732
  155.25000   48.49730   16.40177
  155.30000   49.03537   16.39279
  155.35000   49.57403   16.38458
  155.40000   50.20967   16.38292
  155.45000   50.05292   16.38020
  155.50000   49.99366   16.37723
  155.55000   50.98466   16.38260
  155.60000   51.77009   16.39978
  155.65000   52.25489   16.42040
  155.70000   52.35286   16.43354
  155.75000   51.93311   16.44549
  155.80000   51.64808   16.45287
  155.85000   51.52891   16.44981
  155.90000   51.25439   16.43697
  155.95000   50.61038   16.42284
  156.00000   50.23776   16.41341
  156.05000   49.86399   16.40332
  156.10000   49.83706   16.39650
  156.15000   49.33838   16.39332
  156.20000   49.26504   16.39625
  156.25000   49.75990   16.39855
  156.30000   49.81102   16.39916
  156.35000   50.34820   16.40068
  156.40000   50.50133   16.40978
  156.45000   50.83735   16.43429
  156.50000   50.68617   16.45737
  156.55000   50.40062   16.47578
  156.60000   50.26548   16.48854
  156.65000   50.19372   16.48706
  156.70000   49.86056   16.46493
  156.75000   48.98388   16.42732
  156.80000   48.12019   16.39060
  156.85000   46.86930   16.35606
  156.90000   45.97834   16.32459
  156.95000   45.20621   16.30197
  157.00000   44.46096   16.29208
  157.05000   43.87293   16.27768
  157.10000   43.94444   16.25966
  157.15000   44.39071   16.23069
  157.20000   43.89225   16.20369
  157.25000   43.07764   16.17739
  157.30000   42.42184   16.14228
  157.35000   42.23077   16.10813
  157.40000   42.21478   16.07766
  157.45000   42.45112   16.05841
  157.50000   42.36651   16.03062
  157.55000   42.21080   16.01138
  157.60000   42.32988   16.00393
  157.65000   42.19138   16.00394
  157.70000   41.80532   16.00845
  157.75000   41.14004   16.01627
  157.80000   40.84767   16.03521
  157.85000   41.07675   16.05022
  157.90000   41.49354   16.06136
  157.95000   41.81351   16.07022
  158.00000   41.98123   16.08028
  158.05000   42.24763   16.09631
  158.10000   42.22670   16.11508
  158.15000   42.29683   16.13334
  158.20000   42.03446   16.15328
  158.25000   42.16467   16.17251
  158.30000   42.24751   16.18706
  158.35000   42.04424   16.19531
  158.40000   42.17919   16.19884
  158.45000   41.79229   16.20248
  158.50000   41.24674   16.20796
  158.55000   40.97102   16.22026
  158.60000   40.46561   16.23455
  158.65000   40.14645   16.24733
  158.70000   40.15529   16.26130
  158.75000   39.72265   16.27121
  158.80000   39.34232   16.27598
  158.85000   38.93721   16.27807
  158.90000   38.73676   16.28469
  158.95000   38.64346   16.29265
  159.00000   38.45745   16.29531
  159.05000   38.82534   16.30006
  159.10000   39.01286   16.30500
  159.15000   39.16852   16.30362
  159.20000   39.25700   16.29327
  159.25000   39.49239   16.28415
  159.30000   39.90566   16.28077
  159.35000   40.45609   16.27419
  159.40000   41.03017   16.26635
  159.45000   41.83533   16.25989
  159.50000   42.46508   16.25736
  159.55000   42.87986   16.25194
  159.60000   43.22118   16.24592
  159.65000   43.56456   16.24375
  159.70000   43.79121   16.24103
  159.75000   43.59027   16.23883
  159.80000   43.43794   16.23106
  159.85000   43.09858   16.22347
  159.90000   42.91938   16.21201
  159.95000   42.63793   16.19728
  160.00000   42.57564   16.17970
  160.05000   42.05404   16.16410
  160.10000   41.81994   16.16738
  160.15000   41.31384   16.17907
  160.20000   40.65043   16.19412
  160.25000   40.17959   16.21071
  160.30000   39.92338   16.22822
  160.35000   39.91452   16.24613
  160.40000   40.31841   16.25118
  160.45000   40.35571   16.25167
  160.50000   39.78921   16.25717
  160.55000   39.68582   16.26957
  160.60000   39.39861   16.28720
  160.65000   39.72253   16.30145
  160.70000   39.81473   16.30446
  160.75000   40.03485   16.29530
  160.80000   40.37844   16.27586
  160.85000   40.44113   16.24674
  160.90000   40.39829   16.21578
  160.95000   40.65261   16.18253
  161.00000   40.40833   16.16185
  161.05000   40.15106   16.15666
  161.10000   40.39350   16.15312
  161.15000   40.21063   16.16460
  161.20000   40.30102   16.17214
  161.25000   40.52323   16.18461
  161.30000   40.51777   16.20115
  161.35000   40.59712   16.20085
  161.40000   40.46164   16.19265
  161.45000   40.27597   16.17309
  161.50000   40.46677   16.15894
  161.55000   40.45252   16.14106
  161.60000   40.75208   16.11655
  161.65000   41.70625   16.10880
  161.70000   41.82429   16.11482
  161.75000   42.11958   16.12891
  161.80000   42.37053   16.14858
  161.85000   42.59935   16.17763
  161.90000   42.47546   16.22685
  161.95000   42.62378   16.28989
  162.00000   42.96542   16.35594
  162.05000   43.39990   16.41597
  162.10000   43.60965   16.46942
  162.15000   44.07854   16.51020
  162.20000   44.43924   16.53036
  162.25000   44.38864   16.53967
  162.30000   44.82227   16.53761
  162.35000   44.56095   16.53199
  162.40000   44.46270   16.52381
  162.45000   44.31190   16.51767
  162.50000   44.65921   16.51460
  162.55000   44.54800   16.50949
  162.60000   44.19403   16.52550
  162.65000   43.88678   16.55853
  162.70000   43.36485   16.59685
  162.75000   42.67225   16.63323
  162.80000   41.99378   16.64860
  162.85000   41.45589   16.64696
  162.90000   41.12694   16.62590
  162.95000   41.21461   16.59024
  163.00000   41.32957   16.55382
  163.05000   40.98336   16.52201
  163.10000   41.22236   16.50262
  163.15000   41.58980   16.48418
  163.20000   41.91803   16.46517
  163.25000   42.13329   16.45208
  163.30000   42.62323   16.44526
  163.35000   42.59970   16.43676
  163.40000   43.09773   16.43375
  163.45000   43.45423   16.43469
  163.50000   43.60483   16.42703
  163.55000   44.23428   16.40833
  163.60000   44.23329   16.38610
  163.65000   44.40399   16.37442
  163.70000   44.10226   16.36551
  163.75000   43.58415   16.36617
  163.80000   43.23381   16.39057
  163.85000   43.42477   16.42365
  163.90000   43.43596   16.44963
  163.95000   43.70409   16.46224
  164.00000   43.61847   16.47606
  164.05000   43.71442   16.48436
  164.10000   43.50026   16.47817
  164.15000   43.16386   16.46969
  164.20000   42.83326   16.46509
  164.25000   42.50842   16.46710
  164.30000   41.90616   16.47348
  164.35000   41.65627   16.48707
  164.40000   41.53897   16.50988
  164.45000   41.14837   16.55704
  164.50000   40.76998   16.61896
  164.55000   40.44326   16.68671
  164.60000   40.20442   16.74777
  164.65000   39.68797   16.80768
  164.70000   39.41377   16.88859
  164.75000   39.19376   16.95821
  164.80000   39.39063   17.01859
  164.85000   39.71928   17.07373
  164.90000   40.23546   17.13029
  164.95000   40.26201   17.17880
  165.00000   39.75279   17.19946
  165.05000   39.50822   17.21973
  165.10000   39.09091   17.24875
  165.15000   38.97910   17.30771
  165.20000   38.89904   17.38522
  165.25000   39.25481   17.46615
  165.30000   39.35137   17.54563
  165.35000   39.75131   17.62615
  165.40000   39.90507   17.70807
  165.45000   39.99400   17.76750
  165.50000   40.62930   17.81551
  165.55000   41.39965   17.85747
  165.60000   42.17330   17.90088
  165.65000   42.66860   17.95081
  165.70000   43.43396   17.99208
  165.75000   43.59691   18.02644
  165.80000   43.90890   18.05943
  165.85000   43.85795   18.09615
  165.90000   43.82234   18.12520
  165.95000   43.76088   18.13768
  166.00000   43.88340   18.14785
  166.05000   44.02558   18.17056
  166.10000   43.68058   18.20340
  166.15000   43.20346   18.23918
  166.20000   43.35040   18.28107
  166.25000   43.84987   18.32789
  166.30000   44.03183   18.37461
  166.35000   44.05219   18.41225
  166.40000   43.93964   -9999.25
  166.45000   43.96807   -9999.25
  166.50000   44.44941   -9999.25
  166.55000   44.32741   -9999.25
  166.60000   -9999.25   -9999.25
