#------------------------------------------------------------
~VERSION INFORMATION
VERS.               2.0  :CWLS LOG ASCII STANDARD - VERSION 2.0
WRAP.               YES  :MULTIPLE LINES PER DEPTH STEP
#------------------------------------------------------------
~WELL INFORMATION
STRT.M        0.4629000  :FIRST INDEX VALUE
STOP.M         166.9829  :LAST INDEX VALUE
STEP.M        0.0000000  :STEP
NULL.            -99999  :NULL VALUE
COMP.                    :COMPANY
WELL.                    :WELL
FLD.                     :FIELD
LOC.                     :LOCATION
SRVC.                    :
CTRY.                    :COUNTRY
STAT.                    :STATE
CNTY.                    :
DATE.                    :DATE
API.                     :
#------------------------------------------------------------
~CURVE INFORMATION
DEPT.M                   :DEPTH
SPEED.M/MIN              :Speed
TIME.SEC                 :Time
POSCOUNT.COUNT           :Poscount
NEGCOUNT.COUNT           :Negcount
POSDT.SEC                :Posdt
NEGDT.SEC                :Negdt
DEEP_INDUCTION.MS/M      :Deep Induction
MEDIUM_INDUCTION.MS/M    :Medium Induction
DEEP_RES.OHM-M           :Deep Res
MEDIUM_RES.OHM-M         :Medium Res
#------------------------------------------------------------
~PARAMETER INFORMATION
STE.                     :STE
TWP.                     :TWP
TYPE_FLUID_IN_HOLE.      :TYPE FLUID IN HOLE
CASING_FROM1.            :CASING FROM1
CASING_FROM2.            :CASING FROM2
CASING_FROM3.            :CASING FROM3
CASING_FROM4.            :CASING FROM4
BIT_TO3.                 :BIT TO3
CASING_FROM5.            :CASING FROM5
CASING_FROM6.            :CASING FROM6
BIT4.                    :BIT4
PERMANENT_DATUM.         :PERMANENT DATUM
BIT_TO2.                 :BIT TO2
K_B_.                    :K.B.
BIT5.                    :BIT5
BIT_TO1.                 :BIT TO1
TYPE_LOG.                :TYPE LOG
WELL_ID.                 :WELL ID
RUN1.                    :RUN1
RGE.                     :RGE
CO.                      :CO
ELEVATION.               :ELEVATION
TOP_LOGGED_INTERVAL.     :TOP LOGGED INTERVAL
RUN2.                    :RUN2
BTM_LOGGED_INTERVAL.     :BTM LOGGED INTERVAL
RUN3.                    :RUN3
BIT_TO6.                 :BIT TO6
WGT3.                    :WGT3
LOG_MEAS__FROM.          :LOG MEAS. FROM
RUN4.                    :RUN4
BIT_TO5.                 :BIT TO5
WGT2.                    :WGT2
D_F_.                    :D.F.
BIT_FROM2.               :BIT FROM2
RUN5.                    :RUN5
BIT_TO4.                 :BIT TO4
WGT1.                    :WGT1
BIT_FROM3.               :BIT FROM3
DEPTH-LOGGER.            :DEPTH-LOGGER
RUN6.                    :RUN6
RECORDED_BY.             :RECORDED BY
CTY.                     :CTY
MAX__REC__TEMP_.         :MAX. REC. TEMP.
BIT_FROM1.               :BIT FROM1
SEC.                     :SEC
CASING_TO1.              :CASING TO1
CASING_TO2.              :CASING TO2
CASING_TO3.              :CASING TO3
SALINITY.                :SALINITY
CASING_TO4.              :CASING TO4
CASING_TO5.              :CASING TO5
CASING_TO6.              :CASING TO6
WGT6.                    :WGT6
G_L_.                    :G.L.
BIT_FROM6.               :BIT FROM6
LEVEL.                   :LEVEL
WGT5.                    :WGT5
BIT2.                    :BIT2
DEPTH-DRILLER.           :DEPTH-DRILLER
DENSITY.                 :DENSITY
WITNESSED_BY.            :WITNESSED BY
WGT4.                    :WGT4
RUN_No.                  :RUN No
BIT3.                    :BIT3
BIT_FROM4.               :BIT FROM4
CASING_SIZE1.            :CASING SIZE1
CASING_SIZE2.            :CASING SIZE2
CASING_SIZE3.            :CASING SIZE3
CASING_SIZE4.            :CASING SIZE4
CASING_SIZE5.            :CASING SIZE5
CASING_SIZE6.            :CASING SIZE6
OTHER_SERVICES.          :OTHER SERVICES
BIT_FROM5.               :BIT FROM5
OPERATING_RIG_TIME.      :OPERATING RIG TIME
TITLE.                   :TITLE
BIT1.                    :BIT1
FILING_No.               :FILING No
DRILLING_MEAS__FROM.     :DRILLING MEAS. FROM
BIT6.                    :BIT6
#------------------------------------------------------------
~OTHER
#------------------------------------------------------------
~A
# ...
   100.1429
     5.225000    0.1250954     35.52479     39.53242    0.1216629
    0.1212742     11.14898     4.243268     89.69441     235.6674
   100.1529
     5.225000    0.1000000     28.50153     31.49847   0.09692600
   0.09600295     11.04376     4.247409     90.55919     235.4376
   100.1629
     5.225000    0.1249047     35.47140     39.96949    0.1214892
    0.1226674     10.96384     4.256337     91.21005     234.9438
   100.1729
     5.225000    0.1250954     35.52860     39.53242    0.1216777
    0.1213895     11.00536     4.245834     90.86480     235.5250
   100.1829
     5.225000    0.1000000     28.49809     31.49809   0.09689139
   0.09605920     10.86612     4.252750     92.04506     235.1420
   100.1929
     5.225000    0.1248855     35.47023     39.96336    0.1214800
    0.1228257     10.77285     4.265529     92.82795     234.4375
   100.2029
     5.225000    0.1250954     35.02670     39.53242    0.1199266
    0.1215611     11.08836     4.257971     90.23669     234.8537
   100.2129
     5.225000    0.1000000     28.49809     31.49809   0.09691017
   0.09622635     11.24475     4.246833     88.93920     235.4696
   100.2229
     5.225000    0.1000000     28.50153     32.00000   0.09690542
   0.09772038     11.09571     4.246622     90.12591     235.4813
   100.2329
     5.225000    0.1249047     35.47140     39.47140    0.1214928
    0.1212768     11.07871     4.235102     90.26350     236.1218
   100.2429
     5.237453    0.1250954     35.52860     39.52860    0.1217196
    0.1215715     11.09501     4.224491     90.13062     236.7149
   100.2529
     5.250000    0.1000000     28.49809     32.00000   0.09691396
   0.09780818     11.00347     4.226414     90.88622     236.6072
   100.2629
     5.250000    0.1249237     35.48015     39.47710    0.1215082
    0.1212581     10.98160     4.235102     91.06482     236.1218
   100.2729
     5.250000    0.1250954     35.02670     39.52860    0.1199116
    0.1213606     11.00959     4.248197     90.83109     235.3940
   100.2829
     5.250000    0.1000000     28.49809     32.00000   0.09689517
   0.09762520     11.04445     4.250598     90.54742     235.2610
   100.2929
     5.250000    0.1000000     28.50191     32.00000   0.09691604
   0.09766901     11.09486     4.252923     90.13232     235.1324
   100.3029
     5.250000    0.1248855     35.46565     39.46565    0.1214584
    0.1214317     11.08279     4.244901     90.23014     235.5768
   100.3129
     5.250000    0.1250954     35.52860     39.52860    0.1216583
    0.1215385     11.09042     4.243734     90.16796     235.6415
   100.3229
     5.250000    0.1000000     28.49809     32.00000   0.09688573
   0.09759493     11.06420     4.239185     90.38189     235.8944
   100.3329
     5.212615    0.1249237     35.48015     39.47710    0.1215387
    0.1213081     11.04853     4.238368     90.50982     235.9399
   100.3429
     5.175000    0.1250954     35.02670     39.52860    0.1199759
    0.1217097     11.01106     4.233236     90.81918     236.2259
   100.3529
     5.175000    0.1000000     28.49809     32.00000   0.09693840
   0.09788330     10.97302     4.241634     91.13262     235.7582
   100.3629
     5.175000    0.1000000     28.50191     31.50191   0.09691797
   0.09599268     10.97321     4.240001     91.13103     235.8490
   100.3729
     5.175000    0.1248855     35.46565     39.46107    0.1214832
    0.1212255     10.97398     4.237173     91.12466     236.0064
   100.3829
     5.175000    0.1250954     35.52860     40.03051    0.1217264
    0.1232089     10.95190     4.239842     91.30898     235.8578
   100.3929
     5.175000    0.1000000     28.00000     31.50191   0.09519249
   0.09625912     10.97791     4.239534     91.09423     235.8749
   100.4029
     5.175000    0.1249237     35.47710     39.47404    0.1215530
    0.1214019     11.03557     4.234286     90.61610     236.1673
   100.4129
     5.175000    0.1250954     35.52860     39.53242    0.1217470
    0.1215997     11.04926     4.240059     90.50388     235.8457
   100.4229
     5.162548    0.1000000     28.49809     31.49809   0.09697516
   0.09624723     11.07713     4.235102     90.27629     236.1218
   100.4329
     5.150000    0.1249047     35.47521     39.96949    0.1215726
    0.1229923     11.09610     4.231020     90.12177     236.3496
   100.4429
     5.150000    0.1251145     35.52977     39.53893    0.1217301
    0.1215733     11.06917     4.222217     90.34159     236.8424
   100.4529
     5.150000    0.1000000     28.50191     31.49809   0.09691797
   0.09611203     11.01073     4.219415     90.82112     236.9997
   100.4629
     5.150000    0.1000000     28.00000     32.00000   0.09514626
   0.09771936     10.95235     4.216330     91.30519     237.1731
   100.4729
     5.150000    0.1249237     35.47710     39.47710    0.1214887
    0.1213271     10.88805     4.216709     91.84475     237.1518
   100.4829
     5.150000    0.1250954     35.52860     39.52860    0.1216496
    0.1213820     10.87403     4.216728     91.96261     237.1507
   100.4929
     5.150000    0.1000000     28.49809     32.00000   0.09688505
   0.09761147     10.90757     4.199404     91.67953     238.1290
   100.5029
     5.150000    0.1249047     35.47521     39.96949    0.1214796
    0.1227815     10.91283     4.210619     91.63531     237.4948
   100.5129
     5.150000    0.1250763     35.51985     39.52596    0.1216206
    0.1213754     10.89960     4.208988     91.74651     237.5868
   100.5229
     5.150000    0.1000000     28.50191     31.49809   0.09689111
   0.09615946     10.91721     4.201763     91.59895     237.9953
   100.5329
     5.150000    0.1249047     35.47140     39.47140    0.1214542
    0.1214245     10.94905     4.202462     91.33217     237.9557
   100.5429
     5.150000    0.1250954     35.52860     39.52860    0.1216589
    0.1215943     10.97278     4.201763     91.13483     237.9953
   100.5529
     5.150000    0.1000000     28.00000     32.00000   0.09512439
   0.09765609     11.01974     4.176991     90.74696     239.4068
   100.5629
     5.150000    0.1249047     35.47140     39.47140    0.1214928
    0.1213452     11.03460     4.142982     90.62419     241.3720
   100.5729
     5.150000    0.1250954     35.52860     39.52860    0.1217258
    0.1217042     11.02535     4.163252     90.70011     240.1968
   100.5829
     5.150000    0.1000000     28.49847     32.00000   0.09695458
   0.09795610     11.01502     4.148681     90.78532     241.0405
   100.5929
     5.162453    0.1249047     35.47521     39.47140    0.1215246
    0.1213407     10.98631     4.151243     91.02249     240.8917
   100.6029
     5.175000    0.1250954     35.52479     39.52860    0.1216574
    0.1212983     10.99442     4.159325     90.95557     240.4236
   100.6129
     5.175000    0.1000000     28.50191     32.00000   0.09691789
   0.09772375     11.00780     4.159267     90.84467     240.4270
   100.6229
     5.175000    0.1248855     35.46565     39.46565    0.1215231
    0.1215511     10.97252     4.144145     91.13735     241.3043
   100.6329
     5.175000    0.1250954     35.52860     39.52860    0.1217509
    0.1217693     10.97845     4.147867     91.08849     241.0878
   100.6429
     5.175000    0.1000000     28.00000     32.00000   0.09518748
   0.09791131     11.00491     4.145425     90.86861     241.2298
   100.6529
     5.175000    0.1249237     35.47710     39.47710    0.1215611
    0.1214435     11.00008     4.148332     90.90842     241.0607
   100.6629
     5.175000    0.1250954     35.52860     39.52860    0.1217552
    0.1215453     11.01970     4.137285     90.74674     241.7044
   100.6729
     5.175000    0.1000000     28.49809     32.00000   0.09696893
   0.09775508     11.03780     4.129961     90.59778     242.1330
   100.6829
     5.175000    0.1249047     35.47521     39.47140    0.1215639
    0.1212755     11.02721     4.148856     90.68491     241.0303
   100.6929
     5.175000    0.1251145     35.03206     39.53435    0.1199981
    0.1215541     11.01777     4.153566     90.76250     240.7570
