#------------------------------------------------------------
~VERSION INFORMATION
VERS.               2.0  :CWLS LOG ASCII STANDARD - VERSION 2.0
WRAP.               YES  :MULTIPLE LINES PER DEPTH STEP
#------------------------------------------------------------
~WELL INFORMATION
STRT.M        0.4629000  :FIRST INDEX VALUE
STOP.M         166.9829  :LAST INDEX VALUE
STEP.M        0.0000000  :STEP
NULL.            -99999  :NULL VALUE
COMP.                    :COMPANY
WELL.                    :WELL
FLD.                     :FIELD
LOC.                     :LOCATION
SRVC.                    :
CTRY.                    :COUNTRY
STAT.                    :STATE
CNTY.                    :
DATE.                    :DATE
API.                     :
#------------------------------------------------------------
~CURVE INFORMATION
DEPT.M                   :DEPTH
SPEED.M/MIN              :Speed
TIME.SEC                 :Time
POSCOUNT.COUNT           :Poscount
NEGCOUNT.COUNT           :Negcount
POSDT.SEC                :Posdt
NEGDT.SEC                :Negdt
DEEP_INDUCTION.MS/M      :Deep Induction
MEDIUM_INDUCTION.MS/M    :Medium Induction
DEEP_RES.OHM-M           :Deep Res
MEDIUM_RES.OHM-M         :Medium Res
#------------------------------------------------------------
~PARAMETER INFORMATION
STE.                     :STE
TWP.                     :TWP
TYPE_FLUID_IN_HOLE.      :TYPE FLUID IN HOLE
CASING_FROM1.            :CASING FROM1
CASING_FROM2.            :CASING FROM2
CASING_FROM3.            :CASING FROM3
CASING_FROM4.            :CASING FROM4
BIT_TO3.                 :BIT TO3
CASING_FROM5.            :CASING FROM5
CASING_FROM6.            :CASING FROM6
BIT4.                    :BIT4
PERMANENT_DATUM.         :PERMANENT DATUM
BIT_TO2.                 :BIT TO2
K_B_.                    :K.B.
BIT5.                    :BIT5
BIT_TO1.                 :BIT TO1
TYPE_LOG.                :TYPE LOG
WELL_ID.                 :WELL ID
RUN1.                    :RUN1
RGE.                     :RGE
CO.                      :CO
ELEVATION.               :ELEVATION
TOP_LOGGED_INTERVAL.     :TOP LOGGED INTERVAL
RUN2.                    :RUN2
BTM_LOGGED_INTERVAL.     :BTM LOGGED INTERVAL
RUN3.                    :RUN3
BIT_TO6.                 :BIT TO6
WGT3.                    :WGT3
LOG_MEAS__FROM.          :LOG MEAS. FROM
RUN4.                    :RUN4
BIT_TO5.                 :BIT TO5
WGT2.                    :WGT2
D_F_.                    :D.F.
BIT_FROM2.               :BIT FROM2
RUN5.                    :RUN5
BIT_TO4.                 :BIT TO4
WGT1.                    :WGT1
BIT_FROM3.               :BIT FROM3
DEPTH-LOGGER.            :DEPTH-LOGGER
RUN6.                    :RUN6
RECORDED_BY.             :RECORDED BY
CTY.                     :CTY
MAX__REC__TEMP_.         :MAX. REC. TEMP.
BIT_FROM1.               :BIT FROM1
SEC.                     :SEC
CASING_TO1.              :CASING TO1
CASING_TO2.              :CASING TO2
CASING_TO3.              :CASING TO3
SALINITY.                :SALINITY
CASING_TO4.              :CASING TO4
CASING_TO5.              :CASING TO5
CASING_TO6.              :CASING TO6
WGT6.                    :WGT6
G_L_.                    :G.L.
BIT_FROM6.               :BIT FROM6
LEVEL.                   :LEVEL
WGT5.                    :WGT5
BIT2.                    :BIT2
DEPTH-DRILLER.           :DEPTH-DRILLER
DENSITY.                 :DENSITY
WITNESSED_BY.            :WITNESSED BY
WGT4.                    :WGT4
RUN_No.                  :RUN No
BIT3.                    :BIT3
BIT_FROM4.               :BIT FROM4
CASING_SIZE1.            :CASING SIZE1
CASING_SIZE2.            :CASING SIZE2
CASING_SIZE3.            :CASING SIZE3
CASING_SIZE4.            :CASING SIZE4
CASING_SIZE5.            :CASING SIZE5
CASING_SIZE6.            :CASING SIZE6
OTHER_SERVICES.          :OTHER SERVICES
BIT_FROM5.               :BIT FROM5
OPERATING_RIG_TIME.      :OPERATING RIG TIME
TITLE.                   :TITLE
BIT1.                    :BIT1
FILING_No.               :FILING No
DRILLING_MEAS__FROM.     :DRILLING MEAS. FROM
BIT6.                    :BIT6
#------------------------------------------------------------
~OTHER
#------------------------------------------------------------
~A
# ...
   45.26290
     4.900000    0.1251144     35.53432     39.53432    0.1211680
    0.1216847     12.66447     5.593449     78.96134     178.7806
   45.27290
     4.900000    0.1249046     35.47137     39.47137    0.1209433
    0.1214871     12.66471     5.620683     78.95983     177.9143
   45.28290
     4.900000    0.1250954     36.02670     39.52860    0.1229005
    0.1216411     12.65610     5.648669     79.01340     177.0329
   45.29290
     4.900000    0.1000000     28.50191     32.00000   0.09648860
   0.09781878     12.65462     5.702514     79.02269     175.3613
   45.30290
     4.912452    0.1249046     35.47137     39.47137    0.1208885
    0.1214040     12.68541     5.748464     78.83188     173.9595
   45.31290
     4.925000    0.1250763     35.52288     39.52288    0.1210533
    0.1215779     12.54971     5.743681     79.70055     174.1044
   45.32290
     4.925000    0.1249047     35.47140     39.47140    0.1208617
    0.1213904     12.51755     5.761683     79.90013     173.5604
   45.33290
     4.925000    0.1251144     36.03204     39.53432    0.1228279
    0.1217046     12.79274     5.788966     78.17618     172.7424
   45.34290
     4.925000    0.1249046     35.97328     39.47137    0.1226395
    0.1216683     12.92292     5.817651     77.38196     171.8907
   45.35290
     4.925000    0.1250954     35.52860     39.52860    0.1210554
    0.1217078     12.86185     5.873442     77.75169     170.2579
   45.36290
     4.925000    0.1249047     35.47140     39.96949    0.1208403
    0.1230701     12.72234     5.897326     78.60415     169.5684
   45.37290
     4.925000    0.1250954     35.52863     39.53244    0.1210348
    0.1217502     12.81071     5.929883     78.07157     168.6374
   45.38290
     4.937462    0.1000000     28.49847     31.49847   0.09634848
   0.09624665     13.13289     5.963963     76.15661     167.6738
   45.39290
     4.950000    0.1249047     35.97330     39.96949    0.1224990
    0.1228247     13.04535     5.989870     76.68468     166.9485
   45.40290
     4.950000    0.1250954     35.52860     39.53242    0.1209364
    0.1213978     12.71958     6.022231     78.62141     166.0514
   45.41290
     4.950000    0.1249046     35.47137     39.46756    0.1207074
    0.1211647     12.70295     6.029327     78.72332     165.8560
   45.42290
     4.950000    0.1250954     36.02670     40.03051    0.1226204
    0.1229087     12.70110     6.051960     78.73494     165.2357
   45.43290
     4.950000    0.1249047     35.97330     39.47140    0.1224078
    0.1211237     12.68122     6.069756     78.85748     164.7513
   45.44290
     4.950000    0.1250954     35.52863     39.52863    0.1208458
    0.1213151     12.65790     6.044619     79.00390     165.4364
   45.45290
     4.950000    0.1000000     28.49847     32.00000   0.09622285
   0.09763434     12.67155     6.112060     78.91982     163.6110
   45.46290
     4.925095    0.1249047     35.97330     39.96949    0.1223068
    0.1226237     12.74459     6.137327     78.46464     162.9374
   45.47290
     4.900000    0.1250954     35.52860     39.53242    0.1206932
    0.1210206     12.71747     6.128373     78.63226     163.1755
   45.48290
     4.900000    0.1249046     35.47137     39.46756    0.1204730
    0.1208243     12.69125     6.145776     78.79443     162.7134
   45.49290
     4.900000    0.1250763     36.02136     40.02441    0.1224339
    0.1228757     12.65904     6.156651     78.99539     162.4260
   45.50290
     4.900000    0.1249047     35.97330     39.47140    0.1222338
    0.1211611     12.62675     6.143073     79.19696     162.7850
   45.51290
     4.900000    0.1251144     35.53432     39.53432    0.1206437
    0.1211552     12.67844     6.156651     78.87549     162.4260
   45.52290
     4.900000    0.1249046     35.47137     39.96947    0.1203764
    0.1223593     12.52553     6.160504     79.85901     162.3244
   45.53290
     4.900000    0.1250954     36.02670     40.03051    0.1222951
    0.1225382     12.51994     6.160835     79.89396     162.3157
   45.54290
     4.924905    0.1000000     29.00000     32.00000   0.09774818
   0.09735002     12.77029     6.170313     78.30771     162.0663
   45.55290
     4.950000    0.1249046     35.97328     39.96947    0.1220506
    0.1223473     12.89310     6.143267     77.56370     162.7798
   45.56290
     4.950000    0.1250763     35.52288     39.52593    0.1204468
    0.1209501     12.80083     6.129889     78.13396     163.1351
   45.57290
     4.950000    0.1249047     35.47140     39.46758    0.1202477
    0.1207365     12.61565     6.133816     79.26670     163.0306
   45.58290
     4.950000    0.1251144     36.03204     40.03661    0.1221912
    0.1224650     12.59986     6.122366     79.36598     163.3355
   45.59290
     4.950000    0.1249046     35.97328     39.96947    0.1219313
    0.1222304     12.57414     6.094642     79.52859     164.0785
   45.60290
     4.950000    0.1250954     36.02670     40.03051    0.1220868
    0.1224450     12.54855     6.088118     79.69046     164.2544
   45.61290
     4.950000    0.1000000     28.50191     32.00000   0.09585910
   0.09733722     12.53266     6.074530     79.79162     164.6218
   45.62290
     4.950000    0.1249046     35.47137     39.47137    0.1201609
    0.1207991     12.50168     6.045568     79.98943     165.4104
   45.63290
     4.974924    0.1250763     36.02136     39.52288    0.1220408
    0.1207741     12.47477     6.034960     80.16183     165.7012
   45.64290
     5.000000    0.1249047     35.97330     39.96949    0.1218214
    0.1219932     12.46300     6.023064     80.23751     166.0285
   45.65290
     5.000000    0.1250954     36.02670     40.03051    0.1219943
    0.1221750     12.49861     5.998078     80.00964     166.7201
   45.66290
     5.000000    0.1249046     35.97328     39.96947    0.1217633
    0.1219576     12.43058     5.971448     80.45277     167.4636
   45.67290
     5.000000    0.1250954     36.02670     40.03051    0.1219093
    0.1221399     12.35028     5.958141     80.97021     167.8376
   45.68290
     5.000000    0.1000000     28.50191     32.00000   0.09568542
   0.09699502     12.32561     5.889761     81.13336     169.7862
   45.69290
     5.000000    0.1249046     35.96947     39.96947    0.1216426
    0.1218666     12.29813     5.875100     81.31350     170.2099
   45.70290
     5.000000    0.1250763     36.02441     40.02441    0.1218118
    0.1220449     12.33087     5.858518     81.09732     170.6916
   45.71290
     4.987548    0.1249047     35.96949     39.96949    0.1215248
    0.1217534     12.27574     5.811517     81.46360     172.0721
   45.72290
     4.975000    0.1250954     36.03051     40.03051    0.1216935
    0.1218563     12.21028     5.827863     81.89822     171.5895
   45.73290
     4.975000    0.1249046     35.47137     39.96947    0.1197394
    0.1217713     12.18865     5.818203     82.04374     171.8744
   45.74290
     4.975000    0.1250763     36.02136     40.02441    0.1216093
    0.1219595     12.15118     5.809621     82.29670     172.1283
   45.75290
     4.975000    0.1000000     29.00000     32.00000   0.09717258
   0.09687558     12.19172     5.724517     82.02479     174.6872
   45.76290
     4.975000    0.1248856     35.96796     39.96339    0.1212673
    0.1217333     12.05305     5.713789     82.98920     175.0152
   45.77290
     4.975000    0.1250954     36.02672     40.03053    0.1214071
    0.1218469     11.87513     5.633850     84.20988     177.4985
   45.78290
     4.975000    0.1249047     36.47140     39.96949    0.1228735
    0.1215785     11.90093     5.590773     84.02704     178.8661
   45.79290
     4.987453    0.1250954     36.03051     40.03051    0.1213076
    0.1217229     11.86071     5.563144     84.31310     179.7545
   45.80290
     5.000000    0.1000000     28.49809     32.00000   0.09522334
   0.09658569     11.89915     5.497512     84.04373     181.9005
   45.81290
     5.000000    0.1249237     36.47712     40.47407    0.1228390
    0.1229929     12.02617     5.433651     83.15309     184.0383
