~Version ---------------------------------------------------
VERS.   2.0 : CWLS log ASCII Standard -VERSION 2.0
WRAP.    NO : One line per depth step
DLM . SPACE : Column Data Section Delimiter
~Well ------------------------------------------------------
STRT.m                      1.45 : START DEPTH
STOP.m                     166.6 : STOP DEPTH
STEP.m      0.050000000000000044 : STEP
NULL.                   -9999.25 : NULL VALUE
COMP.       Geoscience Australia : COMPANY
WELL.                    13BP01D : WELL
FLD .                            : FIELD
LOC .                            : LOCATION
PROV.                            : PROVINCE
CNTY.                            : COUNTY
STAT.                            : STATE
CTRY.                        AUS : COUNTRY
SRVC.                            : SERVICE COMPANY
DATE. 2019-05-28 16:13:54.403781 : DATE
UWI .                     627061 : UNIQUE WELL ID
API .                            : API NUMBER
X   .                   473886.6 : eastings (m)
Y   .                  8333260.7 : northings (m)
GDAT.                      GDA94 : geodetic datum
HZCS.                MGA zone 52 : Horizontal Co-ordinate System
PDAT.                         GL : Local Permanent Datum
LMF .    top of casing protector : Logging Measured From
APD .m                      0.73 : Elevation of Depth Reference (LMF) Above Permanent Datum
EPD .mAHD                  84.04 : Elevation of Permanent Datum (PDAT) above Mean Sea Level
~Curve Information -----------------------------------------
DEPT                          .m     : 
GR                            .API   : 
INDUCTION_BOREHOLE_COMPENSATED.mS/m  : 
~Params ----------------------------------------------------
~Other -----------------------------------------------------
Filtered  induction gamma logs for the East Kimberley EFtF project. Depth measurements are relative to a 
~ASCII -----------------------------------------------------
    1.45000   39.67546   -9999.25
    1.50000   39.29194   -9999.25
    1.55000   38.62373   -9999.25
    1.60000   38.34414   -9999.25
    1.65000   37.94867   -9999.25
    1.70000   37.13127   -9999.25
    1.75000   36.62151   -9999.25
    1.80000   35.69041   -9999.25
    1.85000   35.42079   -9999.25
    1.90000   34.81982   -9999.25
    1.95000   33.89312   -9999.25
    2.00000   33.42060   -9999.25
    2.05000   33.14094   -9999.25
    2.10000   33.21764   -9999.25
    2.15000   32.97130   -9999.25
    2.20000   32.89231   -9999.25
    2.25000   33.19331   -9999.25
    2.30000   33.43735   -9999.25
    2.35000   34.24515   -9999.25
    2.40000   34.79645   -9999.25
    2.45000   35.40476   -9999.25
    2.50000   36.17316   -9999.25
    2.55000   36.97335   -9999.25
    2.60000   37.63137   -9999.25
    2.65000   38.03659   -9999.25
    2.70000   38.78592   -9999.25
    2.75000   39.39366   -9999.25
    2.80000   39.96903   -9999.25
    2.85000   40.45577   -9999.25
    2.90000   41.00779   -9999.25
    2.95000   41.32929   -9999.25
    3.00000   41.49253   -9999.25
    3.05000   41.64701   -9999.25
    3.10000   41.44752   -9999.25
    3.15000   41.54590   -9999.25
    3.20000   41.61684   -9999.25
    3.25000   42.42712   -9999.25
    3.30000   42.72738   -9999.25
    3.35000   42.90631   -9999.25
    3.40000   43.46820   -9999.25
    3.45000   43.80931   43.82387
    3.50000   43.86700   43.94766
    3.55000   44.02357   44.05494
    3.60000   44.61154   44.16989
    3.65000   45.05648   44.31884
    3.70000   45.70703   44.47555
    3.75000   46.07103   44.61792
    3.80000   46.09190   44.71249
    3.85000   45.57517   44.76827
    3.90000   45.43917   44.79005
    3.95000   45.33178   44.76039
    4.00000   45.57315   44.72079
    4.05000   45.73362   44.70654
    4.10000   46.64789   44.75410
    4.15000   47.37812   44.83257
    4.20000   47.49838   44.90792
    4.25000   47.96922   44.97496
    4.30000   47.88690   44.99583
    4.35000   48.33126   44.94992
    4.40000   48.55150   44.83143
    4.45000   49.12711   44.66506
    4.50000   49.69657   44.48131
    4.55000   49.84224   44.27101
    4.60000   49.53966   43.99100
    4.65000   49.66470   43.64015
    4.70000   49.10500   43.31473
    4.75000   49.21636   43.00630
    4.80000   49.68829   42.67696
    4.85000   49.63392   42.38032
    4.90000   49.63794   42.16005
    4.95000   49.80015   41.80700
    5.00000   49.86043   41.36501
    5.05000   49.65950   40.92703
    5.10000   49.69100   40.48911
    5.15000   49.92241   40.05916
    5.20000   49.80787   39.70231
    5.25000   49.77422   39.47007
    5.30000   49.57727   39.26018
    5.35000   49.70190   39.07037
    5.40000   49.75719   38.90062
    5.45000   50.02191   38.72975
    5.50000   50.26074   38.57951
    5.55000   50.21559   38.52893
    5.60000   50.53805   38.47154
    5.65000   50.70765   38.41020
    5.70000   51.23501   38.36369
    5.75000   51.56107   38.33377
    5.80000   51.88764   38.31419
    5.85000   52.14996   38.30338
    5.90000   52.46407   38.31843
    5.95000   52.10902   38.33371
    6.00000   51.96583   38.34678
    6.05000   51.90825   38.33428
    6.10000   52.13620   38.30710
    6.15000   52.62660   38.28012
    6.20000   52.58170   38.18551
    6.25000   52.86640   37.95468
    6.30000   53.05394   37.69987
    6.35000   53.19466   37.45539
    6.40000   53.05015   37.20803
    6.45000   53.46870   36.95342
    6.50000   53.40725   36.75729
    6.55000   53.79689   36.59075
    6.60000   53.88715   36.34235
    6.65000   53.76098   36.06597
    6.70000   53.78614   35.77063
    6.75000   53.90145   35.43712
    6.80000   54.24232   35.01013
    6.85000   54.15885   34.48121
    6.90000   53.99345   33.93523
    6.95000   53.98715   33.40919
    7.00000   54.32110   32.91835
    7.05000   54.53837   32.54473
    7.10000   54.64418   32.36208
    7.15000   54.75190   32.38136
    7.20000   54.59447   32.45902
    7.25000   54.66582   32.49549
    7.30000   54.66616   32.51597
    7.35000   54.74830   32.46960
    7.40000   54.94094   32.33742
    7.45000   55.00541   32.19587
    7.50000   54.52242   32.03605
    7.55000   54.21655   31.67052
    7.60000   54.34972   31.22479
    7.65000   53.99003   30.79825
    7.70000   54.03877   30.41607
    7.75000   53.94890   29.99428
    7.80000   53.71873   29.55807
    7.85000   53.83700   29.29155
    7.90000   54.29470   29.01926
    7.95000   54.16587   28.67196
    8.00000   53.48869   28.30969
    8.05000   53.19923   28.01545
    8.10000   53.18734   27.83680
    8.15000   53.27050   27.76034
    8.20000   53.15895   27.74839
    8.25000   53.36863   27.81751
    8.30000   53.61592   27.93063
    8.35000   53.87720   28.07511
    8.40000   54.64363   28.29300
    8.45000   55.09273   28.56037
    8.50000   55.43509   29.00327
    8.55000   56.39269   29.48410
    8.60000   58.32250   29.93734
    8.65000   60.31951   30.32575
    8.70000   62.61843   30.61079
    8.75000   64.66309   30.81094
    8.80000   66.39680   30.83209
    8.85000   68.08361   30.83121
    8.90000   70.05166   30.82999
    8.95000   72.05391   30.77947
    9.00000   73.87750   30.62559
    9.05000   75.38597   30.45368
    9.10000   76.01454   30.28272
    9.15000   77.09166   30.16854
    9.20000   78.40404   30.13789
    9.25000   78.98007   30.20104
    9.30000   79.74169   30.39499
    9.35000   79.52437   30.59193
    9.40000   79.80207   30.78167
    9.45000   80.82812   30.90568
    9.50000   80.91460   30.97758
    9.55000   80.31171   31.01742
    9.60000   79.64291   31.04093
    9.65000   79.36181   31.14946
    9.70000   79.27325   31.31214
    9.75000   79.36003   31.50350
    9.80000   79.24932   31.74367
    9.85000   78.89734   32.02578
    9.90000   78.58341   32.29397
    9.95000   78.87697   32.50941
   10.00000   78.73840   32.70799
   10.05000   78.37686   32.87970
   10.10000   78.34296   32.97893
   10.15000   78.42115   33.03265
   10.20000   79.09882   32.91740
   10.25000   78.54359   32.42883
   10.30000   78.60141   31.51570
   10.35000   78.38898   30.50871
   10.40000   78.18069   29.49010
   10.45000   78.49909   28.50703
   10.50000   78.03110   27.73839
   10.55000   77.11290   27.37028
   10.60000   75.83834   27.37234
   10.65000   74.73509   27.45063
   10.70000   73.80209   27.59530
   10.75000   72.56876   27.87485
   10.80000   70.94503   28.52078
   10.85000   70.19796   29.24988
   10.90000   69.01572   29.96276
   10.95000   67.50591   30.63949
   11.00000   65.64373   31.22320
   11.05000   64.18328   31.57194
   11.10000   63.32101   31.54531
   11.15000   63.34235   31.46136
   11.20000   63.59399   31.38480
   11.25000   63.75089   31.40336
   11.30000   63.98450   31.55338
   11.35000   64.14776   31.75176
   11.40000   64.84342   31.95222
   11.45000   65.32887   32.13109
   11.50000   65.76362   32.13910
   11.55000   66.23874   31.80241
   11.60000   66.42512   31.17622
   11.65000   66.41006   30.42981
   11.70000   66.07428   29.59823
   11.75000   65.03851   28.74110
   11.80000   63.78815   27.95223
   11.85000   62.69491   27.27255
   11.90000   61.29265   26.71526
   11.95000   59.79241   26.16506
   12.00000   58.17778   25.57681
   12.05000   56.72108   24.93809
   12.10000   55.45231   24.26299
   12.15000   54.45502   23.60663
   12.20000   53.32770   22.89068
   12.25000   52.18760   22.15099
   12.30000   51.49732   21.47890
   12.35000   51.07368   20.82348
   12.40000   50.81794   20.25755
   12.45000   50.17773   19.71609
   12.50000   49.72574   19.23770
   12.55000   48.95977   18.83426
   12.60000   48.19799   18.43364
   12.65000   47.03782   18.06327
   12.70000   46.04896   17.68427
   12.75000   44.97299   17.31836
   12.80000   43.79242   16.96194
   12.85000   43.18852   16.58842
   12.90000   42.39581   16.22302
   12.95000   41.59923   15.92572
   13.00000   40.73436   15.68137
   13.05000   40.29576   15.47343
   13.10000   40.40052   15.29222
   13.15000   40.34418   15.16790
   13.20000   39.66676   15.08018
