~Version ---------------------------------------------------
VERS.   2.0 : CWLS log ASCII Standard -VERSION 2.0
WRAP.    NO : One line per depth step
DLM . SPACE : Column Data Section Delimiter
~Well ------------------------------------------------------
STRT.m                      1.45 : START DEPTH
STOP.m                     166.6 : STOP DEPTH
STEP.m      0.050000000000000044 : STEP
NULL.                   -9999.25 : NULL VALUE
COMP.       Geoscience Australia : COMPANY
WELL.                    13BP01D : WELL
FLD .                            : FIELD
LOC .                            : LOCATION
PROV.                            : PROVINCE
CNTY.                            : COUNTY
STAT.                            : STATE
CTRY.                        AUS : COUNTRY
SRVC.                            : SERVICE COMPANY
DATE. 2019-05-28 16:13:54.403781 : DATE
UWI .                     627061 : UNIQUE WELL ID
API .                            : API NUMBER
X   .                   473886.6 : eastings (m)
Y   .                  8333260.7 : northings (m)
GDAT.                      GDA94 : geodetic datum
HZCS.                MGA zone 52 : Horizontal Co-ordinate System
PDAT.                         GL : Local Permanent Datum
LMF .    top of casing protector : Logging Measured From
APD .m                      0.73 : Elevation of Depth Reference (LMF) Above Permanent Datum
EPD .mAHD                  84.04 : Elevation of Permanent Datum (PDAT) above Mean Sea Level
~Curve Information -----------------------------------------
DEPT                          .m     : 
GR                            .API   : 
INDUCTION_BOREHOLE_COMPENSATED.mS/m  : 
~Params ----------------------------------------------------
~Other -----------------------------------------------------
Filtered  induction gamma logs for the East Kimberley EFtF project. Depth measurements are relative to a 
~ASCII -----------------------------------------------------
# ...
  119.45000   34.86292   13.81532
  119.50000   34.64917   13.85414
  119.55000   34.64476   13.88713
  119.60000   34.60834   13.90253
  119.65000   34.80784   13.91262
  119.70000   34.83161   13.92414
  119.75000   34.87140   13.93249
  119.80000   34.56427   13.93631
  119.85000   34.62910   13.93896
  119.90000   34.29839   13.93890
  119.95000   34.17243   13.92710
  120.00000   34.15232   13.90991
  120.05000   34.36681   13.89329
  120.10000   34.38577   13.87527
  120.15000   34.21841   13.85309
  120.20000   34.07889   13.83087
  120.25000   33.83598   13.81177
  120.30000   33.77183   13.77884
  120.35000   33.34130   13.74238
  120.40000   33.07676   13.70871
  120.45000   32.79062   13.68052
  120.50000   32.72028   13.65959
  120.55000   32.57042   13.65195
  120.60000   32.21389   13.66077
  120.65000   32.25656   13.67068
  120.70000   32.26228   13.67894
  120.75000   31.88892   13.68430
  120.80000   31.78534   13.68290
  120.85000   31.50994   13.67620
  120.90000   31.47578   13.66588
  120.95000   31.77883   13.65357
  121.00000   32.29205   13.63875
  121.05000   32.93736   13.62534
  121.10000   33.01616   13.61329
  121.15000   33.60188   13.60253
  121.20000   34.01637   13.59863
  121.25000   34.19878   13.59975
  121.30000   34.45969   13.60421
  121.35000   34.61772   13.60965
  121.40000   34.57328   13.61887
  121.45000   34.66207   13.62906
  121.50000   35.21032   13.63289
  121.55000   35.37047   13.63319
  121.60000   35.21205   13.63365
  121.65000   34.71731   13.62296
  121.70000   34.50546   13.60275
  121.75000   34.19095   13.57867
  121.80000   34.07317   13.55571
  121.85000   34.01539   13.52650
  121.90000   34.05903   13.49034
  121.95000   34.43134   13.46119
  122.00000   34.72935   13.43814
  122.05000   34.60092   13.41934
  122.10000   34.47588   13.39854
  122.15000   34.48750   13.37221
  122.20000   34.89752   13.33300
  122.25000   34.64548   13.28832
  122.30000   34.71201   13.23782
  122.35000   35.10968   13.18059
  122.40000   35.01223   13.11512
  122.45000   34.86272   13.05669
  122.50000   34.55349   13.01307
  122.55000   34.21338   12.97528
  122.60000   33.89455   12.94252
  122.65000   33.89263   12.91543
  122.70000   33.18073   12.90291
  122.75000   32.74141   12.89890
  122.80000   32.66057   12.89764
  122.85000   32.79612   12.90377
  122.90000   32.60263   12.91192
  122.95000   32.52887   12.92352
  123.00000   32.65644   12.93422
  123.05000   32.88728   12.94249
  123.10000   33.23305   12.94619
  123.15000   33.34442   12.94002
  123.20000   33.54179   12.93393
  123.25000   33.57333   12.92719
  123.30000   34.23727   12.91959
  123.35000   34.87741   12.91641
  123.40000   35.01591   12.91663
  123.45000   35.33990   12.92153
  123.50000   35.61661   12.92672
  123.55000   35.56951   12.93229
  123.60000   35.48453   12.94571
  123.65000   35.46703   12.96942
  123.70000   35.47181   13.00418
  123.75000   35.67520   13.04752
  123.80000   35.80270   13.11381
  123.85000   35.90341   13.19465
  123.90000   36.36491   13.28255
  123.95000   37.06681   13.39495
  124.00000   38.59348   13.54358
  124.05000   40.92560   13.70824
  124.10000   43.75267   13.85067
  124.15000   45.98345   13.98172
  124.20000   47.80731   14.09708
  124.25000   49.30032   14.18810
  124.30000   50.47168   14.24843
  124.35000   51.15825   14.29112
  124.40000   52.31334   14.33431
  124.45000   53.42277   14.37762
  124.50000   53.48005   14.42101
  124.55000   53.14505   14.44704
  124.60000   51.87377   14.46091
  124.65000   49.86816   14.47564
  124.70000   47.91549   14.48958
  124.75000   46.90328   14.49942
  124.80000   46.34636   14.50234
  124.85000   45.79463   14.50395
  124.90000   45.34416   14.49785
  124.95000   44.78746   14.48556
  125.00000   43.80308   14.47158
  125.05000   42.85510   14.46410
  125.10000   42.52243   14.46115
  125.15000   42.21948   14.46125
  125.20000   42.08153   14.46809
  125.25000   42.19130   14.47190
  125.30000   41.87121   14.47714
  125.35000   41.99164   14.47677
  125.40000   41.89408   14.47499
  125.45000   41.62990   14.46675
  125.50000   41.50830   14.45687
  125.55000   41.53966   14.44023
  125.60000   41.56502   14.40016
  125.65000   41.86134   14.35345
  125.70000   41.90966   14.30972
  125.75000   42.04733   14.28576
  125.80000   42.17261   14.27731
  125.85000   42.37411   14.29956
  125.90000   43.34967   14.35379
  125.95000   43.87699   14.41676
  126.00000   44.78487   14.48014
  126.05000   46.07839   14.52936
  126.10000   47.03410   14.56515
  126.15000   47.91044   14.59363
  126.20000   48.91300   14.61672
  126.25000   49.46167   14.63605
  126.30000   49.90520   14.65480
  126.35000   50.24466   14.69574
  126.40000   50.81361   14.77311
  126.45000   50.77629   14.85986
  126.50000   49.95437   14.96101
  126.55000   49.62241   15.10128
  126.60000   49.34061   15.27345
  126.65000   49.78956   15.47446
  126.70000   50.72309   15.69706
  126.75000   52.65560   15.96436
  126.80000   55.36231   16.26079
  126.85000   59.37824   16.57203
  126.90000   63.50682   16.86957
  126.95000   67.81549   17.12794
  127.00000   71.81973   17.35639
  127.05000   76.13652   17.54609
  127.10000   79.69473   17.69484
  127.15000   82.52878   17.79896
  127.20000   83.64354   17.88718
  127.25000   83.61779   17.95737
  127.30000   82.82615   17.99699
  127.35000   80.68198   18.01732
  127.40000   77.16194   18.02956
  127.45000   72.66242   18.02082
  127.50000   67.93751   18.00006
  127.55000   62.89183   17.96968
  127.60000   57.84706   17.90903
  127.65000   52.96327   17.82759
  127.70000   49.12818   17.74290
  127.75000   45.99342   17.67198
  127.80000   44.39537   17.61261
  127.85000   43.59550   17.59074
  127.90000   43.63234   17.63451
  127.95000   44.75941   17.73587
  128.00000   47.78127   17.88027
  128.05000   51.15460   18.08430
  128.10000   54.81698   18.33042
  128.15000   58.62143   18.59878
  128.20000   62.13529   18.88358
  128.25000   65.91868   19.19207
  128.30000   69.48428   19.54300
  128.35000   73.86654   19.88700
  128.40000   78.07071   20.24843
  128.45000   81.83002   20.61515
  128.50000   85.25752   20.99988
  128.55000   88.07323   21.39679
  128.60000   89.70111   21.77702
  128.65000   91.45862   22.17373
  128.70000   93.43892   22.54477
  128.75000   95.78551   22.94391
  128.80000   98.15319   23.32093
  128.85000  100.35936   23.65126
  128.90000  101.90939   23.98835
  128.95000  102.68087   24.30841
  129.00000  103.36797   24.62481
  129.05000  104.55171   24.88894
  129.10000  105.54884   25.13809
  129.15000  106.01971   25.37380
  129.20000  106.40137   25.55104
  129.25000  106.30536   25.69564
  129.30000  106.18080   25.80247
  129.35000  105.56949   25.88220
  129.40000  104.87273   25.93826
  129.45000  104.74355   25.96961
  129.50000  104.38468   25.98941
  129.55000  104.56473   26.00522
  129.60000  104.73123   26.01319
  129.65000  104.18489   26.00979
  129.70000  103.96303   25.98478
  129.75000  103.81158   25.94424
  129.80000  103.94117   25.89503
  129.85000  104.16009   25.83727
  129.90000  104.31172   25.77914
  129.95000  104.52096   25.71667
  130.00000  104.61164   25.66737
  130.05000  104.51244   25.62954
  130.10000  104.86987   25.59028
  130.15000  104.64085   25.54826
  130.20000  103.66872   25.50166
  130.25000  103.52326   25.45298
  130.30000  103.70892   25.38871
  130.35000  103.53105   25.32001
  130.40000  104.14845   25.25494
  130.45000  104.61035   25.17611
  130.50000  105.30436   25.07177
  130.55000  105.31251   24.96187
  130.60000  105.74410   24.85789
  130.65000  106.09270   24.73734
  130.70000  106.09836   24.61005
  130.75000  106.25606   24.49924
  130.80000  107.45844   24.41189
  130.85000  108.04673   24.33099
  130.90000  109.02879   24.25318
  130.95000  109.61269   24.19655
  131.00000  109.67296   24.15048
  131.05000  109.11941   24.11578
  131.10000  109.08127   24.07611
  131.15000  109.11595   24.04266
  131.20000  109.40671   24.00969
