#------------------------------------------------------------
~VERSION INFORMATION
VERS.               2.0  :CWLS LOG ASCII STANDARD - VERSION 2.0
WRAP.               YES  :MULTIPLE LINES PER DEPTH STEP
#------------------------------------------------------------
~WELL INFORMATION
STRT.M        0.4629000  :FIRST INDEX VALUE
STOP.M         166.9829  :LAST INDEX VALUE
STEP.M        0.0000000  :STEP
NULL.            -99999  :NULL VALUE
COMP.                    :COMPANY
WELL.                    :WELL
FLD.                     :FIELD
LOC.                     :LOCATION
SRVC.                    :
CTRY.                    :COUNTRY
STAT.                    :STATE
CNTY.                    :
DATE.                    :DATE
API.                     :
#------------------------------------------------------------
~CURVE INFORMATION
DEPT.M                   :DEPTH
SPEED.M/MIN              :Speed
TIME.SEC                 :Time
POSCOUNT.COUNT           :Poscount
NEGCOUNT.COUNT           :Negcount
POSDT.SEC                :Posdt
NEGDT.SEC                :Negdt
DEEP_INDUCTION.MS/M      :Deep Induction
MEDIUM_INDUCTION.MS/M    :Medium Induction
DEEP_RES.OHM-M           :Deep Res
MEDIUM_RES.OHM-M         :Medium Res
#------------------------------------------------------------
~PARAMETER INFORMATION
STE.                     :STE
TWP.                     :TWP
TYPE_FLUID_IN_HOLE.      :TYPE FLUID IN HOLE
CASING_FROM1.            :CASING FROM1
CASING_FROM2.            :CASING FROM2
CASING_FROM3.            :CASING FROM3
CASING_FROM4.            :CASING FROM4
BIT_TO3.                 :BIT TO3
CASING_FROM5.            :CASING FROM5
CASING_FROM6.            :CASING FROM6
BIT4.                    :BIT4
PERMANENT_DATUM.         :PERMANENT DATUM
BIT_TO2.                 :BIT TO2
K_B_.                    :K.B.
BIT5.                    :BIT5
BIT_TO1.                 :BIT TO1
TYPE_LOG.                :TYPE LOG
WELL_ID.                 :WELL ID
RUN1.                    :RUN1
RGE.                     :RGE
CO.                      :CO
ELEVATION.               :ELEVATION
TOP_LOGGED_INTERVAL.     :TOP LOGGED INTERVAL
RUN2.                    :RUN2
BTM_LOGGED_INTERVAL.     :BTM LOGGED INTERVAL
RUN3.                    :RUN3
BIT_TO6.                 :BIT TO6
WGT3.                    :WGT3
LOG_MEAS__FROM.          :LOG MEAS. FROM
RUN4.                    :RUN4
BIT_TO5.                 :BIT TO5
WGT2.                    :WGT2
D_F_.                    :D.F.
BIT_FROM2.               :BIT FROM2
RUN5.                    :RUN5
BIT_TO4.                 :BIT TO4
WGT1.                    :WGT1
BIT_FROM3.               :BIT FROM3
DEPTH-LOGGER.            :DEPTH-LOGGER
RUN6.                    :RUN6
RECORDED_BY.             :RECORDED BY
CTY.                     :CTY
MAX__REC__TEMP_.         :MAX. REC. TEMP.
BIT_FROM1.               :BIT FROM1
SEC.                     :SEC
CASING_TO1.              :CASING TO1
CASING_TO2.              :CASING TO2
CASING_TO3.              :CASING TO3
SALINITY.                :SALINITY
CASING_TO4.              :CASING TO4
CASING_TO5.              :CASING TO5
CASING_TO6.              :CASING TO6
WGT6.                    :WGT6
G_L_.                    :G.L.
BIT_FROM6.               :BIT FROM6
LEVEL.                   :LEVEL
WGT5.                    :WGT5
BIT2.                    :BIT2
DEPTH-DRILLER.           :DEPTH-DRILLER
DENSITY.                 :DENSITY
WITNESSED_BY.            :WITNESSED BY
WGT4.                    :WGT4
RUN_No.                  :RUN No
BIT3.                    :BIT3
BIT_FROM4.               :BIT FROM4
CASING_SIZE1.            :CASING SIZE1
CASING_SIZE2.            :CASING SIZE2
CASING_SIZE3.            :CASING SIZE3
CASING_SIZE4.            :CASING SIZE4
CASING_SIZE5.            :CASING SIZE5
CASING_SIZE6.            :CASING SIZE6
OTHER_SERVICES.          :OTHER SERVICES
BIT_FROM5.               :BIT FROM5
OPERATING_RIG_TIME.      :OPERATING RIG TIME
TITLE.                   :TITLE
BIT1.                    :BIT1
FILING_No.               :FILING No
DRILLING_MEAS__FROM.     :DRILLING MEAS. FROM
BIT6.                    :BIT6
#------------------------------------------------------------
~OTHER
#------------------------------------------------------------
~A
# ...
   155.0229
     5.125000    0.1250382     35.51145     40.01221    0.1206107
    0.1222210     12.16989     4.891007     82.17118     204.4569
   155.0329
     5.125000    0.1000000     28.49848     32.00000   0.09604909
   0.09698000     12.22896     4.887672     81.77318     204.5964
   155.0429
     5.125000    0.1248855     35.96794     39.96336    0.1221380
    0.1217672     12.22163     4.871064     81.82239     205.2940
   155.0529
     5.125000    0.1250762     35.52287     40.02439    0.1206185
    0.1220126     12.26175     4.870260     81.55647     205.3279
   155.0629
     5.137443    0.1000000     28.49771     31.50229   0.09611633
   0.09555209     12.32666     4.879099     81.12496     204.9559
   155.0729
     5.150000    0.1248855     35.96794     39.46107    0.1222255
    0.1203954     12.33336     4.887672     81.08092     204.5964
   155.0829
     5.150000    0.1250762     36.02134     40.02439    0.1224295
    0.1220956     12.30757     4.856605     81.25125     205.9052
   155.0929
     5.150000    0.1000000     28.50229     32.00000   0.09616929
   0.09694403     12.29897     4.874278     81.30782     205.1586
   155.1029
     5.150000    0.1248855     35.46565     39.96336    0.1205261
    0.1219515     12.33220     4.886839     81.08864     204.6313
   155.1129
     5.150000    0.1250762     36.02134     40.02439    0.1224522
    0.1221761     12.33210     4.902146     81.08928     203.9923
   155.1229
     5.150000    0.1000000     28.50229     32.00000   0.09611619
   0.09681934     12.29620     4.936211     81.32621     202.5845
   155.1329
     5.150000    0.1249618     35.48855     39.98779    0.1205175
    0.1217642     12.21797     4.953123     81.84831     201.8928
   155.1429
     5.150000    0.1250762     36.02134     40.02439    0.1224039
    0.1220467     12.11388     4.957956     82.55131     201.6960
   155.1529
     5.112672    0.1000000     28.50229     32.00000   0.09616357
   0.09700696     12.12829     4.943458     82.45412     202.2876
   155.1629
     5.075000    0.1249618     35.48855     39.98779    0.1206118
    0.1219849     12.06319     4.987870     82.90645     200.4864
   155.1729
     5.075000    0.1250762     36.02134     40.02439    0.1224834
    0.1220708     11.94912     5.032704     83.68832     198.7003
   155.1829
     5.075000    0.1000000     28.50229     32.00000   0.09620047
   0.09691942     12.05199     5.042666     82.97813     198.3078
   155.1929
     5.075000    0.1249238     35.47713     39.97561    0.1206156
    0.1218531     12.11035     5.062869     82.57449     197.5165
   155.2029
     5.075000    0.1251145     36.03206     40.03664    0.1225628
    0.1220527     12.12504     5.073110     82.47505     197.1178
   155.2129
     5.075000    0.1000000     29.00000     32.00000   0.09796249
   0.09693184     12.21991     5.070145     81.83508     197.2330
   155.2229
     5.075000    0.1249238     35.48018     39.97561    0.1206195
    0.1218544     12.10665     5.057360     82.61463     197.7316
   155.2329
     5.075000    0.1251145     35.52977     40.03664    0.1207860
    0.1220445     11.77222     4.985361     84.96329     200.5873
   155.2429
     5.062558    0.1000000     29.00000     32.00000   0.09794938
   0.09696177     11.75981     4.907239     85.05086     203.7805
   155.2529
     5.050000    0.1249238     35.97866     39.97561    0.1223442
    0.1219561     11.99111     4.879099     83.39814     204.9559
   155.2629
     5.050000    0.1251145     35.53435     40.03664    0.1207733
    0.1221454     12.05010     4.789218     82.98695     208.8024
   155.2729
     5.050000    0.1000000     28.49924     32.00000   0.09614798
   0.09696753     12.03444     4.730507     83.09484     211.3938
   155.2829
     5.050000    0.1249238     35.97866     39.97561    0.1222355
    0.1216794     12.03977     4.719577     83.05811     211.8834
   155.2929
     5.050000    0.1251145     35.53435     40.03664    0.1206606
    0.1217927     12.09289     4.722509     82.69443     211.7518
   155.3029
     5.050000    0.1249238     35.47713     39.97561    0.1204570
    0.1217574     12.16829     4.742122     82.18130     210.8761
   155.3129
     5.050000    0.1251145     36.03206     40.03664    0.1223870
    0.1219484     12.20931     4.752377     81.90482     210.4210
   155.3229
     5.062443    0.1000000     28.50229     32.00000   0.09611411
   0.09699286     12.16463     4.765720     82.20734     209.8319
   155.3329
     5.075000    0.1249238     35.47713     39.97561    0.1205544
    0.1221854     12.31658     4.823547     81.21495     207.3163
   155.3429
     5.075000    0.1251145     36.03206     40.03664    0.1224910
    0.1221963     12.38382     4.837337     80.76152     206.7253
   155.3529
     5.075000    0.1000000     28.50229     32.00000   0.09612433
   0.09682874     12.16853     4.836267     82.18197     206.7711
   155.3629
     5.075000    0.1249238     35.47713     39.97561    0.1204458
    0.1216765     12.10662     4.835732     82.59951     206.7939
   155.3729
     5.075000    0.1251145     36.03206     40.03664    0.1223825
    0.1218623     12.13911     4.801924     82.37865     208.2499
   155.3829
     5.075000    0.1249618     35.98931     39.98779    0.1222477
    0.1217912     12.15431     4.797767     82.27535     208.4303
   155.3929
     5.075000    0.1250762     36.02134     40.02439    0.1223427
    0.1218140     12.14671     4.790821     82.32685     208.7325
   155.4029
     5.062558    0.1000000     28.50229     32.00000   0.09609289
   0.09685090     12.14850     4.770773     82.31470     209.6096
   155.4129
     5.050000    0.1249618     35.48855     39.98779    0.1205100
    0.1220474     12.15349     4.721976     82.28088     211.7757
   155.4229
     5.050000    0.1250762     36.02134     40.02439    0.1223571
    0.1221170     12.14427     4.705188     82.34347     212.5314
   155.4329
     5.050000    0.1000000     28.50229     32.00000   0.09608427
   0.09693082     12.12588     4.702258     82.46828     212.6638
   155.4429
     5.050000    0.1249238     35.47713     39.97561    0.1204314
    0.1218437     12.07022     4.713092     82.85001     212.1749
   155.4529
     5.050000    0.1251145     36.03206     40.03664    0.1223613
    0.1220788     12.00670     4.709184     83.28695     212.3510
   155.4629
     5.050000    0.1248855     35.96794     39.96336    0.1221436
    0.1218636     12.04672     4.701192     83.01177     212.7120
   155.4729
     5.050000    0.1250762     36.02134     40.02439    0.1223314
    0.1220462     12.10868     4.715580     82.58545     212.0630
   155.4829
     5.050000    0.1000000     28.50229     32.00000   0.09605368
   0.09688099     12.10219     4.724375     82.62982     211.6682
   155.4929
     5.050000    0.1248855     35.46565     39.96336    0.1203862
    0.1217123     12.06556     4.769132     82.88080     209.6818
   155.5029
     5.050000    0.1250762     36.02134     40.02439    0.1223495
    0.1219973     12.07115     4.806051     82.84254     208.0710
   155.5129
     5.050000    0.1000000     28.50229     32.00000   0.09608052
   0.09699933     12.08332     4.826102     82.75882     207.2065
   155.5229
     5.050000    0.1249618     35.48855     39.98779    0.1204513
    0.1220087     12.08933     4.852590     82.71781     206.0755
   155.5329
     5.050000    0.1250762     36.02134     40.02439    0.1222951
    0.1221195     12.07846     4.876004     82.79261     205.0860
   155.5429
     5.050000    0.1248855     35.96794     39.46565    0.1221074
    0.1203619     12.05849     4.903754     82.92925     203.9254
   155.5529
     5.050000    0.1250762     36.02134     39.52287    0.1222777
    0.1205347     12.06194     4.943458     82.90546     202.2876
   155.5629
     5.050000    0.1000000     28.50229     32.00000   0.09600613
   0.09695453     12.04251     4.978911     83.03925     200.8471
   155.5729
     5.062443    0.1248855     35.46565     39.96336    0.1203300
    0.1218024     12.05178     5.032704     82.97552     198.7003
