#------------------------------------------------------------
~VERSION INFORMATION
VERS.               2.0  :CWLS LOG ASCII STANDARD - VERSION 2.0
WRAP.               YES  :MULTIPLE LINES PER DEPTH STEP
#------------------------------------------------------------
~WELL INFORMATION
STRT.M        0.4629000  :FIRST INDEX VALUE
STOP.M         166.9829  :LAST INDEX VALUE
STEP.M        0.0000000  :STEP
NULL.            -99999  :NULL VALUE
COMP.                    :COMPANY
WELL.                    :WELL
FLD.                     :FIELD
LOC.                     :LOCATION
SRVC.                    :
CTRY.                    :COUNTRY
STAT.                    :STATE
CNTY.                    :
DATE.                    :DATE
API.                     :
#------------------------------------------------------------
~CURVE INFORMATION
DEPT.M                   :DEPTH
SPEED.M/MIN              :Speed
TIME.SEC                 :Time
POSCOUNT.COUNT           :Poscount
NEGCOUNT.COUNT           :Negcount
POSDT.SEC                :Posdt
NEGDT.SEC                :Negdt
DEEP_INDUCTION.MS/M      :Deep Induction
MEDIUM_INDUCTION.MS/M    :Medium Induction
DEEP_RES.OHM-M           :Deep Res
MEDIUM_RES.OHM-M         :Medium Res
#------------------------------------------------------------
~PARAMETER INFORMATION
STE.                     :STE
TWP.                     :TWP
TYPE_FLUID_IN_HOLE.      :TYPE FLUID IN HOLE
CASING_FROM1.            :CASING FROM1
CASING_FROM2.            :CASING FROM2
CASING_FROM3.            :CASING FROM3
CASING_FROM4.            :CASING FROM4
BIT_TO3.                 :BIT TO3
CASING_FROM5.            :CASING FROM5
CASING_FROM6.            :CASING FROM6
BIT4.                    :BIT4
PERMANENT_DATUM.         :PERMANENT DATUM
BIT_TO2.                 :BIT TO2
K_B_.                    :K.B.
BIT5.                    :BIT5
BIT_TO1.                 :BIT TO1
TYPE_LOG.                :TYPE LOG
WELL_ID.                 :WELL ID
RUN1.                    :RUN1
RGE.                     :RGE
CO.                      :CO
ELEVATION.               :ELEVATION
TOP_LOGGED_INTERVAL.     :TOP LOGGED INTERVAL
RUN2.                    :RUN2
BTM_LOGGED_INTERVAL.     :BTM LOGGED INTERVAL
RUN3.                    :RUN3
BIT_TO6.                 :BIT TO6
WGT3.                    :WGT3
LOG_MEAS__FROM.          :LOG MEAS. FROM
RUN4.                    :RUN4
BIT_TO5.                 :BIT TO5
WGT2.                    :WGT2
D_F_.                    :D.F.
BIT_FROM2.               :BIT FROM2
RUN5.                    :RUN5
BIT_TO4.                 :BIT TO4
WGT1.                    :WGT1
BIT_FROM3.               :BIT FROM3
DEPTH-LOGGER.            :DEPTH-LOGGER
RUN6.                    :RUN6
RECORDED_BY.             :RECORDED BY
CTY.                     :CTY
MAX__REC__TEMP_.         :MAX. REC. TEMP.
BIT_FROM1.               :BIT FROM1
SEC.                     :SEC
CASING_TO1.              :CASING TO1
CASING_TO2.              :CASING TO2
CASING_TO3.              :CASING TO3
SALINITY.                :SALINITY
CASING_TO4.              :CASING TO4
CASING_TO5.              :CASING TO5
CASING_TO6.              :CASING TO6
WGT6.                    :WGT6
G_L_.                    :G.L.
BIT_FROM6.               :BIT FROM6
LEVEL.                   :LEVEL
WGT5.                    :WGT5
BIT2.                    :BIT2
DEPTH-DRILLER.           :DEPTH-DRILLER
DENSITY.                 :DENSITY
WITNESSED_BY.            :WITNESSED BY
WGT4.                    :WGT4
RUN_No.                  :RUN No
BIT3.                    :BIT3
BIT_FROM4.               :BIT FROM4
CASING_SIZE1.            :CASING SIZE1
CASING_SIZE2.            :CASING SIZE2
CASING_SIZE3.            :CASING SIZE3
CASING_SIZE4.            :CASING SIZE4
CASING_SIZE5.            :CASING SIZE5
CASING_SIZE6.            :CASING SIZE6
OTHER_SERVICES.          :OTHER SERVICES
BIT_FROM5.               :BIT FROM5
OPERATING_RIG_TIME.      :OPERATING RIG TIME
TITLE.                   :TITLE
BIT1.                    :BIT1
FILING_No.               :FILING No
DRILLING_MEAS__FROM.     :DRILLING MEAS. FROM
BIT6.                    :BIT6
#------------------------------------------------------------
~OTHER
#------------------------------------------------------------
~A
# ...
   55.90290
     5.025000    0.1248856     34.96796     39.46568    0.1216302
    0.1227318     9.802356     3.394874     102.0163     294.5617
   55.91290
     5.025000    0.1250954     35.02672     39.03053    0.1218494
    0.1213380     9.805901     3.409709     101.9794     293.2802
   55.92290
     5.025000    0.1249047     34.97330     38.96949    0.1216345
    0.1210872     9.657383     3.413193     103.5731     292.9808
   55.93290
     5.025000    0.1250954     35.02670     39.03051    0.1218131
    0.1213313     9.512850     3.399836     105.1210     294.1319
   55.94290
     5.025000    0.1000000     28.00000     31.49809   0.09666872
   0.09741886     9.566484     3.378387     104.5341     295.9992
   55.95290
     5.025000    0.1249237     34.97864     39.47712    0.1216635
    0.1229337     9.623167     3.395397     103.9160     294.5163
   55.96290
     5.025000    0.1250954     35.02670     39.03051    0.1218393
    0.1215349     9.697536     3.410168     103.1236     293.2407
   55.97290
     5.025000    0.1249047     34.97330     38.96949    0.1216569
    0.1213301     9.671744     3.378136     103.4032     296.0213
   55.98290
     5.025000    0.1250954     35.02672     39.03053    0.1218513
    0.1215013     9.640173     3.405399     103.7366     293.6514
   55.99290
     5.025000    0.1000000     28.00000     31.49809   0.09669561
   0.09742957     9.887348     3.418428     101.1757     292.5321
   56.00290
     5.025000    0.1249047     34.47521     39.47140    0.1198937
    0.1228949     10.17031     3.433229     98.33397     291.2710
   56.01290
     5.025000    0.1250954     34.52481     39.03053    0.1200602
    0.1214869     10.11157     3.433229     98.91982     291.2710
   56.02290
     5.025000    0.1249237     34.97864     38.97559    0.1216498
    0.1212192     9.767118     3.453007     102.4229     289.6027
   56.03290
     5.025000    0.1250954     35.02670     39.03051    0.1218199
    0.1213373     9.635230     3.452327     103.7897     289.6597
   56.04290
     5.037453    0.1000000     28.00000     31.49809   0.09667126
   0.09729583     9.795913     3.454579     102.0945     289.4709
   56.05290
     5.050000    0.1249046     34.97328     39.47137    0.1216524
    0.1228339     9.800774     3.452327     102.0430     289.6597
   56.06290
     5.050000    0.1250763     35.02136     39.02441    0.1218390
    0.1214699     9.719728     3.463473     102.8839     288.7275
   56.07290
     5.050000    0.1249047     34.97330     38.96949    0.1216426
    0.1212806     9.887303     3.475032     101.1632     287.7672
   56.08290
     5.050000    0.1251144     35.03204     39.03661    0.1218285
    0.1215131     9.921658     3.483387     100.8037     287.0769
   56.09290
     5.050000    0.1000000     28.00000     31.00000   0.09664315
   0.09584068     9.814650     3.467164     101.8886     288.4202
   56.10290
     5.050000    0.1249047     34.97330     38.96949    0.1216138
    0.1212969     9.819719     3.494545     101.8359     286.1603
   56.11290
     5.050000    0.1250954     34.52860     39.52860    0.1200449
    0.1231001     9.840613     3.501719     101.6205     285.5740
   56.12290
     5.037548    0.1000000     27.49809     31.50191   0.09488381
   0.09744430     9.851696     3.470835     101.5056     288.1151
   56.13290
     5.025000    0.1249237     34.97864     38.97559    0.1216835
    0.1213313     9.852095     3.500125     101.5016     285.7041
   56.14290
     5.025000    0.1250954     35.02670     39.03051    0.1218712
    0.1215070     9.856528     3.508098     101.4558     285.0547
   56.15290
     5.025000    0.1248856     34.96796     38.96339    0.1216478
    0.1212512     9.839550     3.497733     101.6307     285.8994
   56.16290
     5.025000    0.1250954     35.02672     39.03053    0.1218432
    0.1214619     9.940049     3.498530     100.6144     285.8343
   56.17290
     5.025000    0.1000000     28.00000     31.49809   0.09667937
   0.09741761     10.01566     3.508624     99.84457     285.0121
   56.18290
     5.025000    0.1249047     34.97330     39.47140    0.1216382
    0.1228905     9.994265     3.522456     100.0575     283.8929
   56.19290
     5.025000    0.1250954     35.02672     39.03053    0.1217982
    0.1214327     10.02536     3.520705     99.74756     284.0341
   56.20290
     4.987615    0.1000000     28.00000     31.00000   0.09663059
   0.09573190     9.953196     3.516074     100.4793     284.4081
   56.21290
     4.950000    0.1249047     34.97330     38.96949    0.1216125
    0.1211620     9.948025     3.532829     100.5308     283.0592
   56.22290
     4.950000    0.1250954     35.02670     39.52860    0.1218149
    0.1229432     10.02899     3.528061     99.71105     283.4418
   56.23290
     4.950000    0.1249046     34.47519     39.47137    0.1198431
    0.1227524     10.00489     3.532715     99.95130     283.0684
   56.24290
     4.950000    0.1250954     34.52479     39.03051    0.1200331
    0.1213231     10.00992     3.535224     99.90126     282.8675
   56.25290
     4.950000    0.1000000     28.00000     31.00000   0.09667942
   0.09567375     10.01925     3.555398     99.80794     281.2624
   56.26290
     4.950000    0.1249046     34.97328     38.96947    0.1216325
    0.1212321     10.00330     3.554385     99.96706     281.3426
   56.27290
     4.950000    0.1250763     35.02136     39.52288    0.1217915
    0.1229934     9.999795     3.554873     100.0021     281.3040
   56.28290
     4.950000    0.1249047     34.97330     39.47140    0.1216194
    0.1228220     9.999819     3.555983     100.0018     281.2162
   56.29290
     4.950000    0.1250954     35.02670     39.03051    0.1218156
    0.1215156     10.01153     3.544005     99.88499     282.1667
   56.30290
     4.950000    0.1000000     28.00000     31.00000   0.09666245
   0.09579651     10.03100     3.555924     99.69095     281.2208
   56.31290
     4.950000    0.1249237     34.97864     38.97559    0.1216710
    0.1211528     10.04269     3.528041     99.57499     283.4434
   56.32290
     4.950000    0.1250954     35.02670     39.52860    0.1218469
    0.1228776     10.04973     3.569603     99.50520     280.1432
   56.33290
     4.950000    0.1248856     34.96796     39.46568    0.1216123
    0.1226263     9.997897     3.594344     100.0238     278.2149
   56.34290
     4.950000    0.1250954     35.02672     39.03053    0.1217982
    0.1212031     9.890627     3.577555     101.1089     279.5205
   56.35290
     4.950000    0.1249047     34.97330     38.96949    0.1215895
    0.1210606     9.876033     3.586446     101.2569     278.8276
   56.36290
     4.950000    0.1250954     34.52860     39.52860    0.1199992
    0.1229641     9.985541     3.591146     100.1496     278.4627
   56.37290
     4.950000    0.1000000     27.49809     31.50191   0.09482074
   0.09733703     9.941100     3.597543     100.6059     277.9675
   56.38290
     4.950000    0.1249237     34.97864     38.97559    0.1215867
    0.1212049     9.887278     3.599611     101.1440     277.8078
   56.39290
     4.950000    0.1250954     35.02670     39.03051    0.1217587
    0.1214612     9.881618     3.603942     101.2028     277.4739
   56.40290
     4.950000    0.1248856     34.96796     38.96339    0.1215335
    0.1211560     9.939337     3.596915     100.6267     278.0161
   56.41290
     4.950000    0.1250954     35.02672     39.52863    0.1217556
    0.1228490     10.21212     3.595144     97.94283     278.1530
   56.42290
     4.950000    0.1000000     28.00000     31.50191   0.09661067
   0.09719421     10.22706     3.605542     97.79617     277.3508
   56.43290
     4.950000    0.1249047     34.97330     38.96949    0.1215619
    0.1209741     10.13411     3.603825     98.67820     277.4829
   56.44290
     4.950000    0.1250954     35.02672     39.03053    0.1217519
    0.1211579     10.10480     3.600743     98.96761     277.7205
   56.45290
     4.950000    0.1249237     34.97864     39.47407    0.1215711
    0.1225668     10.02289     3.600743     99.77180     277.7205
