#------------------------------------------------------------
~VERSION INFORMATION
VERS.               2.0  :CWLS LOG ASCII STANDARD - VERSION 2.0
WRAP.               YES  :MULTIPLE LINES PER DEPTH STEP
#------------------------------------------------------------
~WELL INFORMATION
STRT.M        0.4629000  :FIRST INDEX VALUE
STOP.M         166.9829  :LAST INDEX VALUE
STEP.M        0.0000000  :STEP
NULL.            -99999  :NULL VALUE
COMP.                    :COMPANY
WELL.                    :WELL
FLD.                     :FIELD
LOC.                     :LOCATION
SRVC.                    :
CTRY.                    :COUNTRY
STAT.                    :STATE
CNTY.                    :
DATE.                    :DATE
API.                     :
#------------------------------------------------------------
~CURVE INFORMATION
DEPT.M                   :DEPTH
SPEED.M/MIN              :Speed
TIME.SEC                 :Time
POSCOUNT.COUNT           :Poscount
NEGCOUNT.COUNT           :Negcount
POSDT.SEC                :Posdt
NEGDT.SEC                :Negdt
DEEP_INDUCTION.MS/M      :Deep Induction
MEDIUM_INDUCTION.MS/M    :Medium Induction
DEEP_RES.OHM-M           :Deep Res
MEDIUM_RES.OHM-M         :Medium Res
#------------------------------------------------------------
~PARAMETER INFORMATION
STE.                     :STE
TWP.                     :TWP
TYPE_FLUID_IN_HOLE.      :TYPE FLUID IN HOLE
CASING_FROM1.            :CASING FROM1
CASING_FROM2.            :CASING FROM2
CASING_FROM3.            :CASING FROM3
CASING_FROM4.            :CASING FROM4
BIT_TO3.                 :BIT TO3
CASING_FROM5.            :CASING FROM5
CASING_FROM6.            :CASING FROM6
BIT4.                    :BIT4
PERMANENT_DATUM.         :PERMANENT DATUM
BIT_TO2.                 :BIT TO2
K_B_.                    :K.B.
BIT5.                    :BIT5
BIT_TO1.                 :BIT TO1
TYPE_LOG.                :TYPE LOG
WELL_ID.                 :WELL ID
RUN1.                    :RUN1
RGE.                     :RGE
CO.                      :CO
ELEVATION.               :ELEVATION
TOP_LOGGED_INTERVAL.     :TOP LOGGED INTERVAL
RUN2.                    :RUN2
BTM_LOGGED_INTERVAL.     :BTM LOGGED INTERVAL
RUN3.                    :RUN3
BIT_TO6.                 :BIT TO6
WGT3.                    :WGT3
LOG_MEAS__FROM.          :LOG MEAS. FROM
RUN4.                    :RUN4
BIT_TO5.                 :BIT TO5
WGT2.                    :WGT2
D_F_.                    :D.F.
BIT_FROM2.               :BIT FROM2
RUN5.                    :RUN5
BIT_TO4.                 :BIT TO4
WGT1.                    :WGT1
BIT_FROM3.               :BIT FROM3
DEPTH-LOGGER.            :DEPTH-LOGGER
RUN6.                    :RUN6
RECORDED_BY.             :RECORDED BY
CTY.                     :CTY
MAX__REC__TEMP_.         :MAX. REC. TEMP.
BIT_FROM1.               :BIT FROM1
SEC.                     :SEC
CASING_TO1.              :CASING TO1
CASING_TO2.              :CASING TO2
CASING_TO3.              :CASING TO3
SALINITY.                :SALINITY
CASING_TO4.              :CASING TO4
CASING_TO5.              :CASING TO5
CASING_TO6.              :CASING TO6
WGT6.                    :WGT6
G_L_.                    :G.L.
BIT_FROM6.               :BIT FROM6
LEVEL.                   :LEVEL
WGT5.                    :WGT5
BIT2.                    :BIT2
DEPTH-DRILLER.           :DEPTH-DRILLER
DENSITY.                 :DENSITY
WITNESSED_BY.            :WITNESSED BY
WGT4.                    :WGT4
RUN_No.                  :RUN No
BIT3.                    :BIT3
BIT_FROM4.               :BIT FROM4
CASING_SIZE1.            :CASING SIZE1
CASING_SIZE2.            :CASING SIZE2
CASING_SIZE3.            :CASING SIZE3
CASING_SIZE4.            :CASING SIZE4
CASING_SIZE5.            :CASING SIZE5
CASING_SIZE6.            :CASING SIZE6
OTHER_SERVICES.          :OTHER SERVICES
BIT_FROM5.               :BIT FROM5
OPERATING_RIG_TIME.      :OPERATING RIG TIME
TITLE.                   :TITLE
BIT1.                    :BIT1
FILING_No.               :FILING No
DRILLING_MEAS__FROM.     :DRILLING MEAS. FROM
BIT6.                    :BIT6
#------------------------------------------------------------
~OTHER
#------------------------------------------------------------
~A
# ...
   133.1829
     5.000000    0.1248855     36.46565     39.96336    0.1227003
    0.1208046     11.74485     4.496491     85.14711     222.3956
   133.1929
     5.000000    0.1250382     36.51145     40.51145    0.1229134
    0.1226143     11.86855     4.497461     84.25768     222.3477
   133.2029
     5.000000    0.1249238     35.97866     40.47713    0.1210961
    0.1225147     11.76340     4.471890     85.02419     223.6191
   133.2129
     5.000000    0.1251145     36.03206     40.03664    0.1213010
    0.1211506     11.55246     4.457966     86.56367     224.3175
   133.2229
     5.000000    0.1000000     29.00000     32.00000   0.09696188
   0.09622246     11.46849     4.435421     87.19595     225.4578
   133.2329
     5.000000    0.1248855     35.96794     40.46107    0.1210933
    0.1224830     11.47263     4.405905     87.16465     226.9681
   133.2429
     5.000000    0.1250762     36.02134     40.52592    0.1212901
    0.1226243     11.48852     4.366562     87.04357     229.0131
   133.2529
     5.000000    0.1000000     29.00000     32.00000   0.09700179
   0.09622636     11.47806     4.357867     87.12273     229.4701
   133.2629
     4.987557    0.1248855     35.96794     39.96336    0.1211826
    0.1210724     11.45100     4.331590     87.32936     230.8621
   133.2729
     4.975000    0.1250762     36.02134     40.52287    0.1213752
    0.1228316     11.38515     4.273498     87.83440     234.0003
   133.2829
     4.975000    0.1248855     35.96794     40.46565    0.1211920
    0.1227001     11.45099     4.265266     87.33514     234.4520
   133.2929
     4.975000    0.1251145     36.03206     40.03664    0.1214392
    0.1213633     11.53075     4.260422     86.72485     234.7185
   133.3029
     4.975000    0.1000000     29.00000     32.00000   0.09709435
   0.09638558     11.41931     4.239010     87.57671     235.9042
   133.3129
     4.975000    0.1248855     35.96794     39.96336    0.1212813
    0.1212650     11.32467     4.229388     88.30283     236.4408
   133.3229
     4.975000    0.1251145     36.03206     40.03664    0.1215081
    0.1215417     11.32956     4.233469     88.26469     236.2129
   133.3329
     4.975000    0.1249238     35.97866     40.47408    0.1213341
    0.1228052     11.32775     4.207531     88.27882     237.6691
   133.3429
     4.975000    0.1251145     36.03206     40.53893    0.1215493
    0.1229474     11.30121     4.192677     88.48632     238.5111
   133.3529
     4.975000    0.1000000     29.00000     32.00000   0.09719738
   0.09640113     11.06345     4.194948     90.42391     238.3820
   133.3629
     4.975000    0.1249238     35.97866     39.97561    0.1214528
    0.1213444     10.96093     4.169042     91.24431     239.8633
   133.3729
     4.975000    0.1251145     36.03206     40.03664    0.1216394
    0.1214990     11.14756     4.157638     89.70881     240.5212
   133.3829
     4.975000    0.1249618     35.98931     39.98779    0.1215459
    0.1214479     11.23192     4.151996     89.03223     240.8480
   133.3929
     4.975000    0.1250762     36.02134     40.52287    0.1217022
    0.1232751     11.24328     4.139727     88.94202     241.5618
   133.4029
     4.975000    0.1248855     35.96794     40.46565    0.1215249
    0.1231058     11.32350     4.129148     88.31727     242.1808
   133.4129
     4.975000    0.1250382     36.01069     40.01221    0.1216728
    0.1216881     11.32521     4.128973     88.30386     242.1910
   133.4229
     4.962538    0.1000000     28.50152     32.00000   0.09558528
   0.09667122     11.13031     4.088491     89.85313     244.5890
   133.4329
     4.950000    0.1248855     35.46565     39.96336    0.1198168
    0.1215157     11.02240     4.071432     90.72432     245.6138
   133.4429
     4.950000    0.1250382     36.01069     40.01221    0.1217409
    0.1216955     11.04854     4.066269     90.51018     245.9257
   133.4529
     4.950000    0.1249238     35.97866     39.97561    0.1216682
    0.1215709     11.04699     4.086054     90.52298     244.7349
   133.4629
     4.950000    0.1251145     36.03206     40.03664    0.1218889
    0.1217610     11.03449     4.053222     90.62512     246.7173
   133.4729
     4.950000    0.1000000     29.00000     32.00000   0.09746994
   0.09681912     10.99794     4.042209     90.92821     247.3895
   133.4829
     4.950000    0.1248855     35.96794     39.96336    0.1217608
    0.1217445     10.96558     4.034907     91.19476     247.8372
   133.4929
     4.950000    0.1250762     36.02134     40.02439    0.1219718
    0.1219529     11.15345     4.007339     89.67867     249.5421
   133.5029
     4.950000    0.1248855     35.96794     39.96336    0.1218463
    0.1217894     11.19964     3.993275     89.29929     250.4210
   133.5129
     4.950000    0.1251145     35.53435     40.03664    0.1203572
    0.1219901     11.07313     3.997200     90.30869     250.1751
   133.5229
     4.950000    0.1249238     35.47713     39.97561    0.1201684
    0.1217782     10.85561     3.980606     92.15434     251.2180
   133.5329
     4.950000    0.1251145     36.03206     40.03664    0.1221254
    0.1219575     10.73897     3.971411     93.12674     251.7997
   133.5429
     4.950000    0.1000000     29.00000     32.00000   0.09763186
   0.09687120     10.87851     3.951350     91.92563     253.0781
   133.5529
     4.950000    0.1249238     35.97866     39.97561    0.1219874
    0.1218368     10.90011     3.944997     91.74249     253.4856
   133.5629
     4.950000    0.1251145     35.53435     40.03664    0.1204591
    0.1220738     10.90414     3.950817     91.70872     253.1122
   133.5729
     4.950000    0.1248855     35.46565     39.96336    0.1202613
    0.1218991     10.93394     3.943321     91.45834     253.5933
   133.5829
     4.950000    0.1250762     36.02134     40.02439    0.1222195
    0.1221088     10.96909     3.944957     91.16586     253.4882
   133.5929
     4.974885    0.1000000     29.00000     32.00000   0.09773616
   0.09702058     10.99794     3.917509     90.92611     255.2643
   133.6029
     5.000000    0.1248855     35.96794     39.96336    0.1221223
    0.1219366     10.87694     3.896505     91.94923     256.6403
   133.6129
     5.000000    0.1250762     35.52287     40.02439    0.1205880
    0.1219612     10.70665     3.870097     93.40177     258.3914
   133.6229
     5.000000    0.1248855     35.46565     39.96336    0.1204180
    0.1217889     10.63981     3.865833     93.98692     258.6765
   133.6329
     5.000000    0.1250382     36.01069     40.01221    0.1223573
    0.1221769     10.71601     3.865695     93.32579     258.6857
   133.6429
     5.000000    0.1249238     35.97866     39.47713    0.1222704
    0.1205983     10.83358     3.860993     92.30597     259.0008
   133.6529
     5.000000    0.1251145     35.53435     39.53435    0.1207481
    0.1207976     10.84843     3.836803     92.17925     260.6337
   133.6629
     5.000000    0.1000000     28.49924     32.00000   0.09621914
   0.09718191     10.88900     3.817753     91.83752     261.9342
   133.6729
     5.012462    0.1249238     35.97866     39.97561    0.1224471
    0.1221754     10.84468     3.831967     92.21774     260.9626
   133.6829
     5.025000    0.1251145     35.53435     40.03664    0.1208971
    0.1224091     10.79180     3.829589     92.66419     261.1246
   133.6929
     5.025000    0.1249618     35.48855     39.98779    0.1207480
    0.1223722     10.85819     3.824715     92.09694     261.4574
   133.7029
     5.025000    0.1250762     36.02134     40.02439    0.1226359
    0.1225092     10.80001     3.820860     92.59828     261.7212
   133.7129
     5.025000    0.1000000     28.50229     31.50229   0.09633485
   0.09574585     10.67100     3.806995     93.71349     262.6743
   133.7229
     5.025000    0.1249238     35.47713     39.47408    0.1207861
    0.1207108     10.65835     3.824715     93.82400     261.4574
   133.7329
     5.025000    0.1251145     36.03206     40.03664    0.1227348
    0.1223838     10.68172     3.808370     93.61791     262.5795
