~Version ---------------------------------------------------
VERS.   2.0 : CWLS log ASCII Standard -VERSION 2.0
WRAP.    NO : One line per depth step
DLM . SPACE : Column Data Section Delimiter
~Well ------------------------------------------------------
STRT.m                      1.45 : START DEPTH
STOP.m                     166.6 : STOP DEPTH
STEP.m      0.050000000000000044 : STEP
NULL.                   -9999.25 : NULL VALUE
COMP.       Geoscience Australia : COMPANY
WELL.                    13BP01D : WELL
FLD .                            : FIELD
LOC .                            : LOCATION
PROV.                            : PROVINCE
CNTY.                            : COUNTY
STAT.                            : STATE
CTRY.                        AUS : COUNTRY
SRVC.                            : SERVICE COMPANY
DATE. 2019-05-28 16:13:54.403781 : DATE
UWI .                     627061 : UNIQUE WELL ID
API .                            : API NUMBER
X   .                   473886.6 : eastings (m)
Y   .                  8333260.7 : northings (m)
GDAT.                      GDA94 : geodetic datum
HZCS.                MGA zone 52 : Horizontal Co-ordinate System
PDAT.                         GL : Local Permanent Datum
LMF .    top of casing protector : Logging Measured From
APD .m                      0.73 : Elevation of Depth Reference (LMF) Above Permanent Datum
EPD .mAHD                  84.04 : Elevation of Permanent Datum (PDAT) above Mean Sea Level
~Curve Information -----------------------------------------
DEPT                          .m     : 
GR                            .API   : 
INDUCTION_BOREHOLE_COMPENSATED.mS/m  : 
~Params ----------------------------------------------------
~Other -----------------------------------------------------
Filtered  induction gamma logs for the East Kimberley EFtF project. Depth measurements are relative to a 
~ASCII -----------------------------------------------------
# ...
   72.25000   33.78744   20.09729
   72.30000   34.06008   20.08898
   72.35000   34.25946   20.07498
   72.40000   34.63211   20.04542
   72.45000   34.78576   20.00860
   72.50000   35.06569   19.97075
   72.55000   34.82672   19.93038
   72.60000   34.65518   19.88797
   72.65000   34.53880   19.85460
   72.70000   34.58129   19.83692
   72.75000   34.29568   19.82469
   72.80000   34.35029   19.81347
   72.85000   34.29700   19.80434
   72.90000   34.36070   19.78887
   72.95000   34.26270   19.76279
   73.00000   34.09794   19.73221
   73.05000   33.78389   19.69699
   73.10000   33.51310   19.65769
   73.15000   33.27644   19.61463
   73.20000   33.04731   19.57748
   73.25000   32.92133   19.54734
   73.30000   33.12986   19.50893
   73.35000   33.18908   19.45972
   73.40000   32.78110   19.41329
   73.45000   32.23161   19.37139
   73.50000   31.96960   19.33252
   73.55000   31.88443   19.29799
   73.60000   31.89473   19.27972
   73.65000   32.02047   19.27239
   73.70000   32.10862   19.25433
   73.75000   32.32398   19.23219
   73.80000   32.59953   19.20561
   73.85000   32.79499   19.17506
   73.90000   32.92379   19.15022
   73.95000   32.96315   19.13439
   74.00000   33.19047   19.13248
   74.05000   33.55488   19.13196
   74.10000   33.67204   19.13471
   74.15000   33.74965   19.14035
   74.20000   33.68865   19.13919
   74.25000   33.71126   19.13122
   74.30000   33.61988   19.12158
   74.35000   33.53160   19.11337
   74.40000   33.65062   19.10509
   74.45000   33.66467   19.09232
   74.50000   33.72119   19.07444
   74.55000   34.10496   19.05808
   74.60000   34.09326   19.03211
   74.65000   34.08987   18.99898
   74.70000   34.11399   18.94968
   74.75000   33.88680   18.89513
   74.80000   33.88294   18.84692
   74.85000   33.81986   18.79154
   74.90000   33.72201   18.74308
   74.95000   33.50949   18.69883
   75.00000   33.16865   18.66896
   75.05000   32.64365   18.63841
   75.10000   32.14833   18.58680
   75.15000   31.61008   18.53992
   75.20000   31.22734   18.49622
   75.25000   30.84830   18.45824
   75.30000   30.96675   18.42409
   75.35000   31.08860   18.40102
   75.40000   30.96429   18.39964
   75.45000   30.94075   18.39669
   75.50000   31.04154   18.39363
   75.55000   31.29932   18.38586
   75.60000   31.31237   18.37314
   75.65000   31.26437   18.36129
   75.70000   31.72088   18.34336
   75.75000   31.90959   18.32517
   75.80000   32.19071   18.29003
   75.85000   32.53232   18.25967
   75.90000   32.42855   18.23689
   75.95000   32.25782   18.19632
   76.00000   32.64700   18.15851
   76.05000   32.61311   18.13787
   76.10000   32.58156   18.14690
   76.15000   32.40334   18.16060
   76.20000   32.56009   18.18617
   76.25000   32.46407   18.23718
   76.30000   32.36246   18.28616
   76.35000   32.44771   18.32019
   76.40000   32.31156   18.34896
   76.45000   32.06177   18.37378
   76.50000   31.88497   18.38958
   76.55000   31.58526   18.40397
   76.60000   31.23892   18.42536
   76.65000   30.86220   18.45834
   76.70000   30.54029   18.48901
   76.75000   30.52680   18.52060
   76.80000   30.41525   18.54998
   76.85000   30.37757   18.57415
   76.90000   30.01748   18.59195
   76.95000   29.81844   18.59839
   77.00000   29.75300   18.60373
   77.05000   29.97479   18.60396
   77.10000   30.11485   18.60038
   77.15000   30.13224   18.59329
   77.20000   30.35908   18.58618
   77.25000   30.73235   18.57680
   77.30000   31.00378   18.56684
   77.35000   31.14274   18.55867
   77.40000   31.56783   18.55520
   77.45000   31.66865   18.55631
   77.50000   32.08950   18.55728
   77.55000   32.47085   18.55973
   77.60000   32.80447   18.55378
   77.65000   32.90240   18.54633
   77.70000   32.93324   18.54442
   77.75000   32.67038   18.53777
   77.80000   32.64880   18.52550
   77.85000   32.32256   18.51322
   77.90000   32.20099   18.51020
   77.95000   32.16059   18.51026
   78.00000   31.80987   18.50418
   78.05000   31.77785   18.50880
   78.10000   31.53352   18.52122
   78.15000   31.31957   18.53379
   78.20000   31.27632   18.54746
   78.25000   31.36266   18.56046
   78.30000   31.75608   18.57471
   78.35000   32.34201   18.58605
   78.40000   32.86667   18.59806
   78.45000   33.20480   18.61323
   78.50000   33.45252   18.62540
   78.55000   33.27575   18.63357
   78.60000   33.58831   18.63857
   78.65000   33.85566   18.64397
   78.70000   33.97129   18.65097
   78.75000   33.90943   18.67531
   78.80000   34.02769   18.71476
   78.85000   33.82174   18.75326
   78.90000   33.45054   18.79011
   78.95000   32.71519   18.80980
   79.00000   32.54640   18.81839
   79.05000   32.34531   18.78513
   79.10000   32.41860   18.73465
   79.15000   32.65453   18.70447
   79.20000   32.64816   18.69982
   79.25000   33.11036   18.72546
   79.30000   34.09659   18.76143
   79.35000   35.74209   18.82733
   79.40000   37.92200   18.89441
   79.45000   40.35103   18.94253
   79.50000   42.41164   18.96830
   79.55000   44.49766   18.99474
   79.60000   45.96085   19.03041
   79.65000   47.34200   19.09851
   79.70000   49.15798   19.18398
   79.75000   50.94528   19.28067
   79.80000   52.53948   19.42671
   79.85000   54.24757   19.59847
   79.90000   55.50943   19.76304
   79.95000   57.13455   19.90868
   80.00000   58.72955   20.05792
   80.05000   60.99245   20.25617
   80.10000   64.07973   20.47165
   80.15000   67.87333   20.75568
   80.20000   72.67768   21.06206
   80.25000   77.15688   21.41322
   80.30000   80.96707   21.76766
   80.35000   84.92804   22.10279
   80.40000   88.98152   22.41767
   80.45000   92.44840   22.66672
   80.50000   95.56191   22.88306
   80.55000   97.92211   23.04413
   80.60000   99.13554   23.16200
   80.65000   97.93789   23.20589
   80.70000   95.30150   23.18472
   80.75000   91.48640   23.13199
   80.80000   86.34621   23.04110
   80.85000   81.31678   22.93708
   80.90000   75.89746   22.78274
   80.95000   70.47840   22.58935
   81.00000   64.87002   22.35232
   81.05000   59.26505   22.05762
   81.10000   53.50697   21.76653
   81.15000   47.83594   21.45236
   81.20000   43.41236   21.17657
   81.25000   40.70590   20.92031
   81.30000   38.45827   20.68823
   81.35000   36.99627   20.50844
   81.40000   35.94838   20.32551
   81.45000   35.20569   20.15924
   81.50000   35.02113   20.01444
   81.55000   34.67961   19.90651
   81.60000   34.04661   19.82836
   81.65000   33.65542   19.76808
   81.70000   33.30391   19.74708
   81.75000   33.21189   19.75300
   81.80000   32.78643   19.79402
   81.85000   32.40506   19.88253
   81.90000   32.59464   19.98884
   81.95000   33.12068   20.09362
   82.00000   33.76635   20.18487
   82.05000   34.06218   20.23353
   82.10000   34.13696   20.24062
   82.15000   34.72052   20.20303
   82.20000   35.13862   20.15718
   82.25000   35.80262   20.11725
   82.30000   36.39575   20.10708
   82.35000   36.84766   20.13802
   82.40000   37.71405   20.17150
   82.45000   38.48200   20.20506
   82.50000   38.93692   20.23358
   82.55000   38.84946   20.25525
   82.60000   38.94300   20.25844
   82.65000   39.45554   20.25310
   82.70000   39.58499   20.24805
   82.75000   39.51324   20.24859
   82.80000   39.59299   20.26288
   82.85000   39.55012   20.30079
   82.90000   39.62444   20.35392
   82.95000   39.34546   20.41918
   83.00000   39.00495   20.49729
   83.05000   38.54579   20.58290
   83.10000   38.02798   20.65308
   83.15000   38.16468   20.69814
   83.20000   38.26204   20.72885
   83.25000   38.30986   20.74479
   83.30000   38.61728   20.73691
   83.35000   38.76300   20.70475
   83.40000   38.87353   20.66794
   83.45000   38.63096   20.63457
   83.50000   38.83887   20.60690
   83.55000   39.10341   20.59210
   83.60000   39.24821   20.61386
   83.65000   39.52850   20.66181
   83.70000   39.62254   20.72083
   83.75000   39.33883   20.77784
   83.80000   39.27949   20.83210
   83.85000   39.36890   20.86905
   83.90000   39.54367   20.86371
   83.95000   39.69861   20.82797
   84.00000   40.01616   20.77327
