~Version ---------------------------------------------------
VERS.   2.0 : CWLS log ASCII Standard -VERSION 2.0
WRAP.    NO : One line per depth step
DLM . SPACE : Column Data Section Delimiter
~Well ------------------------------------------------------
STRT.m                      1.45 : START DEPTH
STOP.m                     166.6 : STOP DEPTH
STEP.m      0.050000000000000044 : STEP
NULL.                   -9999.25 : NULL VALUE
COMP.       Geoscience Australia : COMPANY
WELL.                    13BP01D : WELL
FLD .                            : FIELD
LOC .                            : LOCATION
PROV.                            : PROVINCE
CNTY.                            : COUNTY
STAT.                            : STATE
CTRY.                        AUS : COUNTRY
SRVC.                            : SERVICE COMPANY
DATE. 2019-05-28 16:13:54.403781 : DATE
UWI .                     627061 : UNIQUE WELL ID
API .                            : API NUMBER
X   .                   473886.6 : eastings (m)
Y   .                  8333260.7 : northings (m)
GDAT.                      GDA94 : geodetic datum
HZCS.                MGA zone 52 : Horizontal Co-ordinate System
PDAT.                         GL : Local Permanent Datum
LMF .    top of casing protector : Logging Measured From
APD .m                      0.73 : Elevation of Depth Reference (LMF) Above Permanent Datum
EPD .mAHD                  84.04 : Elevation of Permanent Datum (PDAT) above Mean Sea Level
~Curve Information -----------------------------------------
DEPT                          .m     : 
GR                            .API   : 
INDUCTION_BOREHOLE_COMPENSATED.mS/m  : 
~Params ----------------------------------------------------
~Other -----------------------------------------------------
Filtered  induction gamma logs for the East Kimberley EFtF project. Depth measurements are relative to a 
~ASCII -----------------------------------------------------
# ...
   60.45000   50.57209   20.63489
   60.50000   50.17892   20.63657
   60.55000   49.44457   20.63906
   60.60000   48.83162   20.65185
   60.65000   48.51196   20.67114
   60.70000   47.95358   20.68963
   60.75000   47.17703   20.70837
   60.80000   46.79345   20.72487
   60.85000   46.48189   20.74048
   60.90000   46.36298   20.74567
   60.95000   46.53402   20.75033
   61.00000   46.36807   20.75601
   61.05000   46.57726   20.75829
   61.10000   46.38644   20.75956
   61.15000   46.46027   20.75865
   61.20000   46.25662   20.76460
   61.25000   46.22395   20.76828
   61.30000   46.41102   20.76722
   61.35000   46.55192   20.76698
   61.40000   46.34151   20.76861
   61.45000   46.22878   20.76941
   61.50000   46.11268   20.76277
   61.55000   46.68445   20.75164
   61.60000   47.13213   20.73764
   61.65000   47.07267   20.72464
   61.70000   47.18983   20.71189
   61.75000   47.41201   20.69761
   61.80000   47.70189   20.68612
   61.85000   47.35278   20.67920
   61.90000   46.70343   20.67515
   61.95000   46.01739   20.67191
   62.00000   45.59646   20.67210
   62.05000   44.96272   20.67227
   62.10000   44.32447   20.67982
   62.15000   43.20556   20.68702
   62.20000   42.41029   20.69167
   62.25000   41.36213   20.69317
   62.30000   40.29691   20.68590
   62.35000   39.00703   20.66896
   62.40000   38.34526   20.63364
   62.45000   37.86324   20.59033
   62.50000   37.46178   20.53744
   62.55000   37.03079   20.48360
   62.60000   36.09760   20.43834
   62.65000   35.67386   20.40837
   62.70000   35.14294   20.39184
   62.75000   34.81081   20.38593
   62.80000   34.25020   20.39239
   62.85000   33.78373   20.40440
   62.90000   33.44636   20.41602
   62.95000   32.96194   20.42245
   63.00000   32.39316   20.42451
   63.05000   31.79094   20.42446
   63.10000   31.41067   20.41766
   63.15000   31.42240   20.40718
   63.20000   31.21125   20.39492
   63.25000   30.98408   20.38168
   63.30000   30.84561   20.36919
   63.35000   31.00910   20.35868
   63.40000   31.28584   20.35297
   63.45000   31.08029   20.34265
   63.50000   31.23277   20.32300
   63.55000   31.36318   20.30337
   63.60000   31.28811   20.28022
   63.65000   31.09984   20.25301
   63.70000   31.05717   20.22908
   63.75000   30.86737   20.20677
   63.80000   31.12594   20.19516
   63.85000   30.97150   20.18345
   63.90000   30.76503   20.17205
   63.95000   30.51584   20.15601
   64.00000   30.40562   20.12389
   64.05000   30.56452   20.09883
   64.10000   30.50194   20.08393
   64.15000   30.46019   20.06519
   64.20000   30.69158   20.04694
   64.25000   31.06557   20.03669
   64.30000   31.61166   20.03756
   64.35000   32.10239   20.03171
   64.40000   32.21951   20.01198
   64.45000   32.21304   20.00433
   64.50000   32.18669   20.00107
   64.55000   31.94618   19.98667
   64.60000   31.86757   19.98408
   64.65000   31.81273   19.99194
   64.70000   31.74652   20.01302
   64.75000   31.26638   20.03761
   64.80000   30.85082   20.06527
   64.85000   30.42566   20.10760
   64.90000   29.46900   20.12913
   64.95000   28.95050   20.13611
   65.00000   28.80590   20.13502
   65.05000   28.49916   20.12619
   65.10000   28.39904   20.11724
   65.15000   28.20382   20.10313
   65.20000   27.88898   20.09645
   65.25000   27.78471   20.09908
   65.30000   27.57188   20.10707
   65.35000   27.80020   20.11742
   65.40000   27.81195   20.12656
   65.45000   27.72068   20.13554
   65.50000   27.80073   20.14522
   65.55000   27.76032   20.15031
   65.60000   27.67803   20.15202
   65.65000   27.65123   20.14942
   65.70000   27.81328   20.14140
   65.75000   27.92490   20.13885
   65.80000   27.94012   20.13731
   65.85000   27.90734   20.13215
   65.90000   28.20781   20.12374
   65.95000   28.00306   20.11768
   66.00000   28.17998   20.11567
   66.05000   28.20995   20.10988
   66.10000   28.55559   20.10545
   66.15000   29.13133   20.10504
   66.20000   29.47392   20.10819
   66.25000   29.85116   20.11279
   66.30000   29.92557   20.11751
   66.35000   30.14249   20.11899
   66.40000   30.26917   20.11909
   66.45000   30.33684   20.11813
   66.50000   30.59141   20.11687
   66.55000   30.66952   20.11908
   66.60000   30.48994   20.12573
   66.65000   30.36319   20.13603
   66.70000   30.03634   20.14983
   66.75000   29.85931   20.16785
   66.80000   29.87377   20.18764
   66.85000   29.93813   20.20564
   66.90000   30.31665   20.22245
   66.95000   30.85992   20.24658
   67.00000   31.26008   20.27468
   67.05000   31.68201   20.30157
   67.10000   31.96085   20.33113
   67.15000   32.44402   20.36738
   67.20000   32.62806   20.40253
   67.25000   33.09220   20.43387
   67.30000   33.59123   20.47103
   67.35000   33.80615   20.50729
   67.40000   34.03348   20.54334
   67.45000   34.56095   20.56575
   67.50000   34.77186   20.58411
   67.55000   34.50986   20.59527
   67.60000   34.32178   20.58863
   67.65000   34.01864   20.58225
   67.70000   33.50236   20.57681
   67.75000   33.29003   20.58369
   67.80000   33.41929   20.59273
   67.85000   33.41226   20.60323
   67.90000   33.40945   20.62068
   67.95000   33.16743   20.63322
   68.00000   32.59424   20.62276
   68.05000   32.21899   20.59538
   68.10000   31.59416   20.58408
   68.15000   31.58460   20.57668
   68.20000   31.78260   20.57184
   68.25000   31.97814   20.57561
   68.30000   32.56002   20.60476
   68.35000   33.23235   20.63927
   68.40000   34.56817   20.65746
   68.45000   36.29271   20.67085
   68.50000   38.31280   20.68146
   68.55000   40.40653   20.68452
   68.60000   42.09729   20.67784
   68.65000   43.45584   20.67629
   68.70000   45.00680   20.67600
   68.75000   46.56661   20.67949
   68.80000   47.81759   20.68732
   68.85000   49.07602   20.69849
   68.90000   49.40553   20.71324
   68.95000   49.01287   20.72514
   69.00000   47.80706   20.73572
   69.05000   46.04079   20.74577
   69.10000   44.19599   20.75067
   69.15000   42.32845   20.75272
   69.20000   40.89334   20.75648
   69.25000   39.40523   20.75638
   69.30000   37.92707   20.75471
   69.35000   36.45830   20.74974
   69.40000   35.04021   20.74232
   69.45000   34.07161   20.73735
   69.50000   33.56297   20.71272
   69.55000   33.00294   20.68904
   69.60000   32.37783   20.64924
   69.65000   32.06017   20.59770
   69.70000   31.86740   20.55028
   69.75000   31.91686   20.50638
   69.80000   32.37745   20.48052
   69.85000   32.59048   20.45383
   69.90000   32.88437   20.44707
   69.95000   32.98218   20.44956
   70.00000   33.34834   20.45000
   70.05000   33.81729   20.44630
   70.10000   34.10427   20.44122
   70.15000   34.56944   20.43605
   70.20000   35.02373   20.43143
   70.25000   35.17198   20.42631
   70.30000   35.22347   20.42109
   70.35000   35.67757   20.41866
   70.40000   35.57192   20.41914
   70.45000   35.68669   20.43920
   70.50000   35.74567   20.47882
   70.55000   36.07786   20.52219
   70.60000   36.08215   20.56696
   70.65000   36.03963   20.61173
   70.70000   36.20536   20.65338
   70.75000   36.14134   20.67830
   70.80000   36.11565   20.68989
   70.85000   36.15464   20.70659
   70.90000   35.95786   20.72484
   70.95000   35.39753   20.74851
   71.00000   35.09307   20.77425
   71.05000   34.73359   20.79910
   71.10000   34.64105   20.82423
   71.15000   34.17712   20.84317
   71.20000   33.80491   20.85976
   71.25000   33.45335   20.86608
   71.30000   33.13674   20.85049
   71.35000   33.06026   20.82142
   71.40000   32.79039   20.78577
   71.45000   32.68632   20.74707
   71.50000   32.83845   20.70590
   71.55000   33.04347   20.65595
   71.60000   32.80727   20.59492
   71.65000   32.67568   20.53358
   71.70000   32.38159   20.47318
   71.75000   32.24103   20.41444
   71.80000   32.15947   20.35563
   71.85000   32.06077   20.30938
   71.90000   31.87850   20.28049
   71.95000   32.30953   20.24911
   72.00000   32.66317   20.21518
   72.05000   33.19219   20.18199
   72.10000   32.84356   20.15155
   72.15000   32.98932   20.12612
   72.20000   33.30911   20.10867
